,city,state,country,latitude,longitude,population,msa
0,mahopac,new york,united states,41.37232,-73.73346,8369,New York-Northern New Jersey-Long Island NY-NJ-PA MSA
1,seven hills,ohio,united states,41.39533,-81.67624,11690,
2,new martinsville,west virginia,united states,39.64452,-80.8576,5218,WV NONMETROPOLITAN AREA
3,sint anthonis,north brabant,netherlands,51.62667,5.88194,3340,
4,machali,o higgins region,chile,-34.18082,-70.64933,27595,
6,jankowice,silesia,poland,50.0009,18.98901,2840,
7,jacksonville,oregon,united states,42.31346,-122.96699,2883,Jacksonville FL MSA
8,fjerritslev,north denmark,denmark,57.08822,9.26622,3332,
9,palmanova,balearic islands,spain,39.5247,2.53922,7040,
10,astorga,castille and leon,spain,42.45879,-6.05601,12078,
12,kilsyth,scotland,united kingdom,55.97596,-4.05916,9860,
13,netstal,glarus,switzerland,47.06337,9.05734,2900,
14,revesby,new south wales,australia,-33.95,151.01667,14056,
15,tigerville,south carolina,united states,35.06845,-82.36845,1312,Greenville-Mauldin-Easley SC MSA
16,flims,grisons,switzerland,46.83705,9.28458,2536,
17,sinai,mymensingh,bangladesh,25.2089,89.7025,0,
18,sandsli,vestland,norway,60.30323,5.28554,1070,
19,olivette,missouri,united states,38.66533,-90.37595,7870,
20,golders green,england,united kingdom,51.57631,-0.20033,18818,
21,simpelveld,limburg,netherlands,50.83417,5.98194,2405,
22,coleford,england,united kingdom,51.79535,-2.61354,10371,
24,buttrio,friuli venezia giulia,italy,46.01098,13.33354,3947,
25,herencia,castille la mancha,spain,39.36616,-3.35735,7879,
26,velden,bavaria,germany,49.61388,11.51008,1887,
27,biandronno,lombardy,italy,45.81281,8.70882,3267,
28,rexdale,ontario,canada,43.7167,-79.5667,0,
29,yorktown,indiana,united states,40.17365,-85.49414,11231,Muncie IN MSA
30,toftlund,south denmark,denmark,55.18858,9.06925,3438,
32,grieskirchen,upper austria,austria,48.23333,13.83333,4515,
33,llucmajor,balearic islands,spain,39.49093,2.89108,36078,
34,marlborough,connecticut,united states,41.6331,-72.4547,6368,Hartford-West Hartford-East Hartford CT MSA
35,zama,kanagawa,japan,35.4879,139.39101,134671,
36,chungju,north chungcheong,south korea,36.97666,127.9287,209483,
38,magnitogorsk,chelyabinsk,russia,53.41861,59.04722,413351,
39,fayetteville,west virginia,united states,38.05289,-81.10399,2892,WV NONMETROPOLITAN AREA
42,gibbsboro,new jersey,united states,39.83817,-74.96489,2244,Philadelphia-Camden-Wilmington PA-NJ-DE-MD MSA
44,kortenhoef,north holland,netherlands,52.23917,5.10694,6250,
45,glinde,schleswig holstein,germany,53.5441,10.20048,16210,
46,sydenham,victoria,australia,-37.7,144.76667,10731,
47,cruise,kentucky,united states,37.3184,-84.123,0,
48,selmer,tennessee,united states,35.17008,-88.59227,4488,TN NONMETROPOLITAN AREA
49,haddon,new jersey,united states,39.9063,-75.0625,14539,
50,belmont,new hampshire,united states,43.44536,-71.47785,1301,NH NONMETROPOLITAN AREA
51,gozzano,piedmont,italy,45.74273,8.43659,4596,
52,bovolone,veneto,italy,45.26142,11.11786,14036,
53,antegnate,lombardy,italy,45.48648,9.79146,2915,
54,koudum,friesland,netherlands,52.91551,5.44834,2600,
55,bloomfield,new mexico,united states,36.71112,-107.98451,7314,Farmington NM MSA
56,wadern,saarland,germany,49.54122,6.88774,17282,
59,espejo,region metropolitana,chile,-33.5333,-70.7167,98804,
62,lonato,lombardy,italy,45.46079,10.47732,8186,
63,earls court,england,united kingdom,51.49159,-0.19801,9104,
64,rouvignies,hauts de france,france,50.32285,3.44769,596,
65,east finchley,barnet,united kingdom,51.5902,-0.1753,15989,
66,broons,brittany,france,48.31721,-2.26054,2542,
67,le bois plage en re,nouvelle aquitaine,france,46.18622,-1.39238,2401,
69,hank,north brabant,netherlands,51.735,4.89722,4323,
70,palomar,valencia,spain,38.85395,-0.5025,520,
71,kalimpong,west bengal,india,27.07059,88.47529,43000,
72,normal,alabama,united states,34.789,-86.5719,0,Huntsville AL MSA
73,varennes sur seine,ile de france,france,48.37304,2.92571,3494,
74,wilnsdorf,north rhine westphalia,germany,50.81667,8.1,21505,
75,charneca,lisbon,portugal,38.78351,-9.14348,10509,
76,cuers,provence alpes cote d azur,france,43.23754,6.07178,8869,
77,wommels,friesland,netherlands,53.10883,5.58749,2065,
78,haines,alaska,united states,59.23595,-135.44533,1713,AK NONMETROPOLITAN AREA
80,cusset,auvergne rhone alpes,france,46.13452,3.45639,14562,
81,apoquindo,region metropolitana,chile,-33.4415,-70.4602,0,
82,outremont,quebec,canada,45.5167,-73.6167,0,
83,coutances,normandie,france,49.0453,-1.4453,8454,
84,edsbyn,gavleborg,sweden,61.37692,15.81747,4179,
85,warrensburg,new york,united states,43.49674,-73.77623,3103,Glens Falls NY MSA
86,humboldt,iowa,united states,42.7208,-94.21524,4596,IA NONMETROPOLITAN AREA
87,phillip island,victoria,australia,-38.48349,145.23102,7071,
88,skogas,stockholm,sweden,59.2167,18.15,0,
89,jeffersonville,vermont,united states,44.64394,-72.82929,753,VT NONMETROPOLITAN AREA
90,new carrollton,maryland,united states,38.96983,-76.87997,12786,
91,delran,new jersey,united states,40.017,-74.9495,16548,
92,mudur,tamil nadu,india,12.4112,79.6543,0,
93,gilly,wallonia,belgium,50.42449,4.4789,20043,
94,bucknell,england,united kingdom,52.35997,-2.95066,717,
95,new johnsonville,tennessee,united states,36.02117,-87.96698,1897,TN NONMETROPOLITAN AREA
96,schiermonnikoog,friesland,netherlands,53.48025,6.15209,835,
97,stenkullen,vastra gotaland,sweden,57.79476,12.31688,2000,
98,kety,lesser poland,poland,49.88214,19.22333,19249,
99,jaszbereny,jasz nagykun szolnok,hungary,47.5,19.91667,27835,
100,illesheim,bavaria,germany,49.4802,10.38165,824,
101,windber,pennsylvania,united states,40.2398,-78.83502,3974,PA NONMETROPOLITAN AREA
102,sotkamo,kainuu,finland,64.13333,28.41667,10368,
103,skjold,rogaland,norway,59.50273,5.58687,600,
104,pickens,south carolina,united states,34.88345,-82.70736,3173,Greenville-Mauldin-Easley SC MSA
105,segeltorp,stockholm,sweden,59.27597,17.93072,10536,
106,fairview,tennessee,united states,35.98201,-87.1214,8331,Nashville-Davidson-Murfreesboro-Franklin TN MSA
107,weybridge,surrey,united kingdom,51.362,-0.453,15449,
109,thornwood,new york,united states,41.12343,-73.77902,3759,New York-Northern New Jersey-Long Island NY-NJ-PA MSA
110,bussigny,vaud,switzerland,46.5511,6.55597,7408,
113,costa volpino,lombardy,italy,45.82768,10.10076,8705,
114,elland,calderdale,united kingdom,53.683,-1.84,11676,
115,samlesbury,lancashire,united kingdom,53.768,-2.621,1206,
116,molenhoek,north brabant,netherlands,51.71113,5.36809,3745,
117,estherville,iowa,united states,43.40163,-94.83276,6011,IA NONMETROPOLITAN AREA
118,aerdenhout,noord holland,netherlands,52.3644,4.5972,0,
119,snowmass,colorado,united states,39.3317,-106.9862,0,CO NONMETROPOLITAN AREA
120,ruaraka,nairobi city,kenya,-1.2404,36.8798,0,
121,saint pierre les elbeuf,normandy,france,49.27901,1.04305,8602,
122,canaan,connecticut,united states,42.02731,-73.32928,1212,CT NONMETROPOLITAN AREA
123,hornslet,central jutland,denmark,56.3155,10.32041,4906,
124,steinbach,bavaria,germany,50.15328,11.65055,3522,
125,de glind,gelderland,netherlands,52.12,5.50694,320,
127,diepenveen,overijssel,netherlands,52.2894,6.15,10838,
128,rotebro,stockholm,sweden,59.4667,17.9167,0,
129,avlum,central jutland,denmark,56.26539,8.79256,3273,
130,crumlin,leinster,ireland,53.32154,-6.31439,11294,
131,winnsboro,texas,united states,32.95734,-95.29022,3340,TX NONMETROPOLITAN AREA
132,contoocook,new hampshire,united states,43.22202,-71.71397,1444,NH NONMETROPOLITAN AREA
133,gray,bourgogne franche comte,france,47.44575,5.59215,7402,
134,blokhus,north denmark,denmark,57.24797,9.58971,501,
136,henley,new south wales,australia,-33.84335,151.13557,460,
137,broadway,england,united kingdom,52.03825,-1.86079,2540,
138,valdese,north carolina,united states,35.74069,-81.56315,4459,Hickory-Lenoir-Morganton NC MSA
139,landen,flanders,belgium,50.75267,5.082,14458,
140,tuscola,illinois,united states,39.7992,-88.2831,4443,IL NONMETROPOLITAN AREA
141,sai kung,sai kung,china,22.38333,114.26667,35800,
142,kimbe,west new britain,papua new guinea,-5.55085,150.13766,18847,
144,catterick,england,united kingdom,54.37542,-1.63328,3155,
145,bank,north rhine westphalia,germany,50.8294,6.0697,0,
147,factoria,eastern samar,philippines,12.083,125.4688,0,
149,carrington,new south wales,australia,-32.66667,152.01667,25,
150,menands,new york,united states,42.69202,-73.72456,3998,
152,middletown,virginia,united states,39.02761,-78.28056,1315,Washington-Arlington-Alexandria DC-VA-MD-WV MSA
155,littlestown,pennsylvania,united states,39.74454,-77.08804,4478,PA NONMETROPOLITAN AREA
156,bushnell,florida,united states,28.66499,-82.11286,2995,FL NONMETROPOLITAN AREA
158,ararat,ararat,armenia,39.83069,44.70569,28832,
159,el carmen,nuevo leon,mexico,24.61649,-100.49271,74,
160,sanlucar la mayor,andalusia,spain,37.38758,-6.20346,12749,
162,sirnach,thurgau,switzerland,47.46222,8.99763,6463,
164,koh tao,surat thani,thailand,10.09808,99.83809,1382,
165,whetstone,leicestershire,united kingdom,52.5724,-1.1799,6556,
166,acambaro,guanajuato,mexico,20.03085,-100.72194,57972,
167,ballston,virginia,united states,38.8801,-77.1139,0,
168,readfield,maine,united states,44.38785,-69.96672,2454,ME NONMETROPOLITAN AREA
169,santaluz,bahia,brazil,-11.25583,-39.37472,24739,
170,tottenham,ontario,canada,44.02437,-79.80553,5143,
171,roaring spring,pennsylvania,united states,40.33591,-78.39085,2537,Altoona PA MSA
173,adma,mont liban,lebanon,34.0228,35.6419,0,
175,holloman afb,new mexico,united states,32.8483,-106.0998,4096,Las Cruces NM MSA
176,purwodadi,central java,indonesia,-7.0868,110.9158,150206,
177,los cortijos,chihuahua,mexico,25.90912,-107.25207,36,
179,malvik,trøndelag,norway,63.43333,10.68333,6419,
180,sanepa,banten,indonesia,-6.3106,106.3083,0,
181,cisterna,campania,italy,41.19201,14.27772,88,
182,jægerspris,capital region,denmark,55.85248,11.98565,4043,
183,mojacar,andalusia,spain,37.1402,-1.85102,5154,
184,koudekerke,zeeland,netherlands,51.48167,3.55417,2880,
185,vlezenbeek,flanders,belgium,50.80778,4.23197,3377,
186,gravellona toce,piedmont,italy,45.92859,8.43209,7077,
187,hoegaarden,flanders,belgium,50.7756,4.88952,3226,
188,ilupeju,ekiti,nigeria,7.5687,5.406,0,
189,st pauls,mzimba,malawi,-11.8922,33.6067,0,
190,manurewa,auckland,new zealand,-37.0182,174.88019,19236,
192,westville,new jersey,united states,39.86789,-75.13156,4224,Philadelphia-Camden-Wilmington PA-NJ-DE-MD MSA
194,homebase,sulawesi tenggara,indonesia,-4.0282,122.4918,0,
195,slavkov u brna,south moravian,czechia,49.15325,16.87649,5936,
196,linne,limburg,netherlands,51.155,5.93889,3645,
197,mumba,nord kivu,congo,-1.4558,28.8836,0,
198,les gets,auvergne rhone alpes,france,46.15522,6.66492,1331,
199,moncure,north carolina,united states,35.62265,-79.07835,711,Durham NC MSA
202,pleasant,pennsylvania,united states,41.7982,-79.2032,2321,
203,byfield,massachusetts,united states,42.7598,-70.9481,0,Boston-Cambridge-Quincy MA-NH MSA
204,kingston,new hampshire,united states,42.93648,-71.05339,6225,Boston-Cambridge-Quincy MA-NH MSA
205,warren,vermont,united states,44.111,-72.8608,1649,VT NONMETROPOLITAN AREA
207,jackson,minnesota,united states,43.62079,-94.9886,3234,Jackson MS MSA
208,govan,glasgow city,united kingdom,55.8615,-4.3083,5860,
210,thousand palms,california,united states,33.82002,-116.39029,7715,Riverside-San Bernardino-Ontario CA MSA
211,borden,england,united kingdom,51.33426,0.70038,741,
212,dargaville,northland,new zealand,-35.93333,173.88333,4950,
213,reghaia,algiers,algeria,36.73587,3.34018,54962,
214,donnybrook,leinster,ireland,53.31375,-6.22274,10645,
215,scarborough,queensland,australia,-27.20118,153.10939,8605,
216,woodville,leicestershire,united kingdom,52.769,-1.533,5161,
217,tybee island,georgia,united states,32.00022,-80.84567,3102,Savannah GA MSA
218,malmesbury,wiltshire,united kingdom,51.584,-2.098,5380,
220,kromeriz,zlin,czechia,49.29785,17.39312,29126,
221,betheny,grand est,france,49.28498,4.05495,6002,
222,steinach,baden wurttemberg,germany,48.3,8.05,3924,
223,eveleth,minnesota,united states,47.46243,-92.53991,3673,Duluth MN-WI MSA
224,ruschlikon,zurich,switzerland,47.30688,8.55135,4653,
226,riverton,southland,new zealand,-46.35,168.01667,1431,
227,muurame,central finland,finland,62.13333,25.66667,8826,
228,souillac,savanne,mauritius,-20.51667,57.51667,4392,
229,general,cebu,philippines,10.6296,124.447,0,
232,stabekk,oslo,norway,59.9075,10.6056,0,
233,sylvia park,california,united states,34.115,-118.5818,0,
234,silvi,abruzzo,italy,42.54984,14.11759,12551,
235,slupsk,pomorskie,poland,54.4667,17.0333,0,
236,bladensburg,maryland,united states,38.93928,-76.93386,9640,Washington-Arlington-Alexandria DC-VA-MD-WV MSA
237,frenkendorf,basel landschaft,switzerland,47.50686,7.71648,6180,
238,romans,auvergne rhone alpes,france,46.1198,5.02486,577,
239,brady,texas,united states,31.13517,-99.33506,5549,TX NONMETROPOLITAN AREA
240,lexington,ohio,united states,40.67867,-82.58239,4731,Lexington-Fayette KY MSA
241,rijkevoort,noord brabant,netherlands,51.6572,5.8827,0,
242,shenton park,western australia,australia,-31.95575,115.79807,4507,
243,virovitica,virovitick podravska,croatia,45.83194,17.38389,15665,
247,blue earth,minnesota,united states,43.63746,-94.10218,3236,MN NONMETROPOLITAN AREA
249,hunt,texas,united states,30.0708,-99.3378,0,TX NONMETROPOLITAN AREA
250,etretat,normandy,france,49.70669,0.20523,1658,
251,marstrand,vastra gotaland,sweden,57.88699,11.58218,381,
252,rialto,leinster,ireland,53.33625,-6.29718,3652,Riverside-San Bernardino-Ontario CA MSA
254,noci,apulia,italy,40.79356,17.12681,15383,
255,andersen afb,chungnam,guam,13.5637,144.926,0,
256,jørpeland,rogaland,norway,59.02251,6.04078,5537,
257,dottikon,aargau,switzerland,47.38437,8.23981,3125,
258,laitila,southwest finland,finland,60.87575,21.69765,8403,
259,mardyck,hauts de france,france,51.0194,2.2506,317,
261,marcy,new york,united states,43.1732,-75.2662,9465,Utica-Rome NY MSA
262,neratovice,central bohemia,czechia,50.25926,14.51759,16427,
263,beauharnois,quebec,canada,45.31341,-73.8725,11918,
264,sidney,new york,united states,42.3148,-75.39157,3755,NY NONMETROPOLITAN AREA
266,vicar,andalusia,spain,36.83155,-2.64273,22853,
268,bramley,england,united kingdom,51.32677,-1.05938,4233,
271,crescent springs,kentucky,united states,39.05145,-84.58161,4010,
272,new berlin,new york,united states,42.62424,-75.33156,974,NY NONMETROPOLITAN AREA
274,neckartenzlingen,baden wurttemberg,germany,48.58981,9.23478,6308,
275,salt river,kentucky,united states,37.9792,-85.7125,0,
276,ecorse,michigan,united states,42.24448,-83.14576,9257,Detroit-Warren-Livonia MI MSA
277,colegiales,buenos aires f d,argentina,-34.57365,-58.44924,57000,
278,grandview,washington,united states,46.25097,-119.9017,11176,Yakima WA MSA
279,borneo,pichincha,ecuador,-0.25,-79.1333,0,
280,loudwater,england,united kingdom,51.6,-0.7,4170,
281,pinecrest,california,united states,38.1885,-119.9907,0,CA NONMETROPOLITAN AREA
282,huittinen,satakunta,finland,61.18333,22.7,8952,
283,jurong,jiangsu,china,31.9579,119.1595,617706,
284,saint sulpice de pommeray,centre,france,47.6,1.26667,1962,
285,couillet,wallonia,belgium,50.39139,4.45908,11365,
286,storo,trentino alto adige,italy,45.84925,10.58022,2390,
287,barr,grand est,france,48.40755,7.44873,6343,
288,west henrietta,new york,united states,43.04006,-77.66167,11691,Rochester NY MSA
289,grajau,maranhao,brazil,-5.81944,-46.13861,30217,
290,wyton,east riding of yorkshire,united kingdom,53.7825,-0.2149,0,
291,nova olimpia,mato grosso,brazil,-14.79722,-57.28806,19274,
292,mabank,texas,united states,32.36653,-96.10081,3309,Dallas-Fort Worth-Arlington TX MSA
293,zebrak,central bohemia,czechia,49.87574,13.89735,2139,
294,franklin,louisiana,united states,29.79604,-91.5015,7302,LA NONMETROPOLITAN AREA
295,trooper,pennsylvania,united states,40.14983,-75.40185,5744,
296,concordia,kansas,united states,39.57084,-97.66254,5218,KS NONMETROPOLITAN AREA
297,andalsnes,møre og romsdal,norway,62.56749,7.68709,2035,
298,brædstrup,central jutland,denmark,55.97153,9.61129,3130,
299,lamu,lamu,kenya,-2.27169,40.90201,24525,
301,villa bosch,buenos aires,argentina,-34.5857,-58.577,0,
302,batulicin,kepulauan riau,indonesia,0.6667,104.2667,0,
303,saint jean cap ferrat,provence alpes cote d azur,france,43.68843,7.33361,2149,
304,milaca,minnesota,united states,45.7558,-93.65441,2883,MN NONMETROPOLITAN AREA
305,lota,queensland,australia,-27.46923,153.1858,3171,
307,colby,england,united kingdom,54.57564,-2.51553,120,
309,nyahururu,laikipia,kenya,0.03813,36.36339,31978,
312,aguimes,canary islands,spain,27.90539,-15.44609,28924,
313,dunkeld,scotland,united kingdom,56.5655,-3.58559,1340,
314,guanare,portuguesa,venezuela,9.04183,-69.74206,194688,
315,kenansville,north carolina,united states,34.96239,-77.96221,870,NC NONMETROPOLITAN AREA
316,st olaf,iowa,united states,42.9269,-91.3879,101,
317,hartley wintney,england,united kingdom,51.30379,-0.90019,4488,
319,mahe,kerala,india,11.70172,75.53474,38183,
320,playa blanca,canary islands,spain,28.86426,-13.82814,10000,
321,hakuba,nagano,japan,36.69818,137.86185,9246,
322,chianciano terme,tuscany,italy,43.04181,11.81205,6162,
324,kutina,sisacko moslavacka,croatia,45.475,16.78194,14886,
326,westwego,louisiana,united states,29.90604,-90.1423,8542,New Orleans-Metairie-Kenner LA MSA
327,akkrum,friesland,netherlands,53.05024,5.83087,3440,
328,grand bend,ontario,canada,43.3167,-81.75,0,
329,walpole,new hampshire,united states,43.07952,-72.42592,605,NH NONMETROPOLITAN AREA
330,munkebo,south denmark,denmark,55.45553,10.55433,5536,
331,peshtigo,wisconsin,united states,45.05443,-87.74927,3430,WI NONMETROPOLITAN AREA
333,wallace,north carolina,united states,34.73572,-77.99526,3964,NC NONMETROPOLITAN AREA
335,wemeldinge,zeeland,netherlands,51.51833,3.99722,2855,
336,north st paul,minnesota,united states,45.0137,-92.9995,12506,
340,kosciusko,mississippi,united states,33.058,-89.58956,7187,MS NONMETROPOLITAN AREA
341,burford,england,united kingdom,51.80915,-1.63628,1184,
343,castilleja de la cuesta,andalusia,spain,37.38594,-6.05258,17150,
344,yehud,central district,israel,32.03317,34.89091,25600,
345,kvistgard,capital region,denmark,55.99348,12.50446,1127,
346,koło,greater poland,poland,52.20024,18.63865,23493,
348,longueil,normandy,france,49.88333,0.96667,527,
349,moorefield,west virginia,united states,39.06233,-78.96947,2482,WV NONMETROPOLITAN AREA
350,st peters,south australia,australia,-34.90498,138.62255,3119,
351,herwijnen,gelderland,netherlands,51.82667,5.12917,2305,
353,glenmoore,pennsylvania,united states,40.0868,-75.7819,0,Philadelphia-Camden-Wilmington PA-NJ-DE-MD MSA
356,watkins glen,new york,united states,42.38063,-76.87329,1859,NY NONMETROPOLITAN AREA
357,auburn,new hampshire,united states,43.00453,-71.3484,5089,Boston-Cambridge-Quincy MA-NH MSA
358,gonzaga,cagayan valley,philippines,18.25937,121.99495,7228,
359,waterloo,indiana,united states,41.43199,-85.01997,2248,IN NONMETROPOLITAN AREA
361,biancavilla,sicily,italy,37.64442,14.86685,23188,
362,uci,yucatan,mexico,21.12682,-89.26827,1224,
364,spisska nova ves,kosicky kraj,slovakia,48.94464,20.56153,39195,
365,makarska,split dalmatia,croatia,43.29694,17.01778,13426,
366,requinoa,libertador general bernardo o higgins,chile,-34.2833,-70.8333,0,
367,capenhurst,england,united kingdom,53.2574,-2.95116,380,
369,fair lakes,virginia,united states,38.853,-77.3885,8399,
370,belville,north carolina,united states,34.23073,-77.96582,1936,
372,tamm,baden wurttemberg,germany,48.91988,9.11556,12129,
373,conceicao do coite,bahia,brazil,-11.56389,-39.28278,35171,
374,stranraer,scotland,united kingdom,54.90234,-5.02731,10510,
376,littau,lucerne,switzerland,47.05,8.26274,16121,
377,gumi,gyeongsangbuk do,south korea,36.1136,128.336,427770,
378,colonia leopoldina,pernambuco,brazil,-8.90889,-35.725,11913,
380,richelieu,centre,france,47.01389,0.32406,2263,
381,moody a f b,georgia,united states,30.97849,-83.21646,886,
382,tossa de mar,catalonia,spain,41.71667,2.93333,5001,
383,lido di jesolo,veneto,italy,45.50694,12.64694,10523,
384,defence colony,uttarakhand,india,30.2798,78.0545,0,
385,campina,prahova,romania,45.12619,25.73496,41554,
386,wynne,arkansas,united states,35.22453,-90.78678,8193,AR NONMETROPOLITAN AREA
387,kitgum,northern region,uganda,3.27833,32.88667,56891,
388,le meux,hauts de france,france,49.36718,2.74374,1860,
389,townsend,massachusetts,united states,42.66676,-71.70507,1128,Boston-Cambridge-Quincy MA-NH MSA
390,lomira,wisconsin,united states,43.59138,-88.44371,2384,WI NONMETROPOLITAN AREA
391,zamora,michoacan,mexico,19.9855,-102.28387,141627,
393,gallardon,centre,france,48.52622,1.69307,3625,
394,cazaux,occitanie,france,43.05257,1.51181,46,
395,rungsted,hovedstaden,denmark,55.8693,12.5516,0,
396,cabra,andalusia,spain,37.47249,-4.44206,21352,
397,sainte suzanne,reunion,reunion,-20.90616,55.60788,20530,
398,jefferson hills,pennsylvania,united states,40.29118,-79.93199,11360,Pittsburgh PA MSA
399,saint nicolas,wallonia,belgium,50.62837,5.53243,22586,
400,belas,lisbon,portugal,38.7767,-9.26353,21019,
401,thayngen,schaffhausen,switzerland,47.74717,8.70724,4120,
402,canton,missouri,united states,40.1295,-91.51852,2377,Canton-Massillon OH MSA
403,ortuella,basque country,spain,43.31113,-3.05617,8360,
404,solok,west sumatra,indonesia,-0.8006,100.6571,48372,
405,grand,flanders,belgium,51.2,4.4667,0,
406,alvik,norrbotten,sweden,65.51667,21.76667,771,
407,palmital,sao paulo,brazil,-22.78889,-50.2175,18539,
408,grimaud,provence alpes cote d azur,france,43.27329,6.52171,4122,
409,dommelen,north brabant,netherlands,51.34624,5.43394,1220,
410,mission bay,auckland,new zealand,-36.85472,174.83167,4341,
411,muntendam,groningen,netherlands,53.1336,6.8686,4748,
412,oost souburg,zeeland,netherlands,51.4636,3.6008,541,
413,california polytechnic state university,california,united states,35.3053,-120.6655,0,
415,rosebud,alberta,canada,51.3003,-112.9507,80,
416,martelli,abruzzo,italy,42.36003,14.26864,26,
417,parma,idaho,united states,43.78516,-116.94321,2082,Boise City-Nampa ID MSA
418,seatac,washington,united states,47.44846,-122.29217,28215,
419,montplaisir,flanders,belgium,50.7123,4.1192,0,
422,kauniainen,uusimaa,finland,60.21209,24.72756,8688,
423,nijeveen,drenthe,netherlands,52.7328,6.1675,2860,
424,griffin,queensland,australia,-27.27149,153.03942,6703,Atlanta-Sandy Springs-Marietta GA MSA
425,gondar,amhara,ethiopia,12.6,37.46667,153914,
426,lindsborg,kansas,united states,38.57362,-97.67448,3383,KS NONMETROPOLITAN AREA
427,chepen,la libertad,peru,-7.22436,-79.42476,41992,
428,forges les eaux,normandy,france,49.61391,1.54449,3775,
429,crozon,brittany,france,48.24643,-4.48993,8123,
430,saint pair sur mer,normandy,france,48.81455,-1.56761,3741,
431,adra,andalusia,spain,36.74831,-3.02076,24373,
432,lassigny,hauts de france,france,49.58828,2.84289,1317,
433,baeza,andalusia,spain,37.99384,-3.47103,16253,
436,curanilahue,biobio,chile,-37.47793,-73.34495,30611,
437,leppavirta,north savo,finland,62.49009,27.78262,10936,
438,carovigno,apulia,italy,40.70626,17.65847,14043,
439,hornbæk,capital region,denmark,56.09027,12.45693,5334,
440,bonao,monsenor nouel,dominican republic,18.93687,-70.40923,73269,
442,gardone riviera,lombardy,italy,45.62396,10.56682,2059,
443,emory,virginia,united states,36.77289,-81.83623,1251,Kingsport-Bristol-Bristol TN-VA MSA
444,china grove,north carolina,united states,35.56931,-80.58173,4182,NC NONMETROPOLITAN AREA
445,salbris,centre,france,47.4242,2.05124,5810,
446,ulysses,kansas,united states,37.58141,-101.35517,6097,KS NONMETROPOLITAN AREA
447,oppenweiler,baden wurttemberg,germany,48.9827,9.4585,4295,
448,north acton,ealing,united kingdom,51.528,-0.2577,0,
450,thompson,england,united kingdom,52.53384,0.83038,343,
451,kalemie,tanganyika,democratic republic of the congo,-5.94749,29.19471,146974,
453,schwaig,bavaria,germany,49.46955,11.20064,8340,
454,hamilton college,new york,united states,43.0527,-75.4077,0,
455,ostia,odisha,india,20.0285,85.0342,0,
456,corte franca,lombardy,italy,45.62998,9.98846,6282,
458,malonne,wallonia,belgium,50.43969,4.79562,5467,
459,cavallino,apulia,italy,40.3102,18.20221,7959,
461,ardsley,new york,united states,41.01065,-73.84375,4638,New York-Northern New Jersey-Long Island NY-NJ-PA MSA
462,pacheco,california,united states,37.98353,-122.07524,3685,
464,ga rankuwa,north west,south africa,-25.61692,27.99471,90945,
466,pleasant hills,pennsylvania,united states,40.33563,-79.96061,8252,
467,l air,wallonia,belgium,50.6114,4.0573,0,
469,asnæs,zealand,denmark,55.81229,11.50129,3028,
471,hooglanderveen,utrecht,netherlands,52.1889,5.4292,0,
472,le coteau,auvergne rhone alpes,france,46.01919,4.0923,7571,
474,minot air force base,north dakota,united states,48.42087,-101.33914,5521,ND NONMETROPOLITAN AREA
475,stajer,kostel,slovenia,45.47709,14.8547,4,
476,kirke hvalsø,zealand,denmark,55.5917,11.86253,4086,
477,perry,iowa,united states,41.8386,-94.10718,8089,Des Moines-West Des Moines IA MSA
478,march arb,california,united states,33.8888,-117.2776,989,Riverside-San Bernardino-Ontario CA MSA
479,mex,valais,switzerland,46.18548,7.00004,538,
481,casier,veneto,italy,45.64229,12.29328,3508,
482,surfside beach,south carolina,united states,33.606,-78.97309,4280,
483,derwood,maryland,united states,39.11733,-77.16109,2381,Washington-Arlington-Alexandria DC-VA-MD-WV MSA
484,vallirana,catalonia,spain,41.38676,1.93205,14066,
485,eckernforde,schleswig holstein,germany,54.46854,9.83824,23383,
486,howick,auckland,new zealand,-36.89359,174.93174,11067,
487,castle donnington,leicestershire,united kingdom,52.8444,-1.3377,6416,
488,rockford,minnesota,united states,45.0883,-93.73441,4358,Minneapolis-St. Paul-Bloomington MN-WI MSA
489,annandale,new south wales,australia,-33.88333,151.16667,9259,
490,coaticook,quebec,canada,45.13339,-71.79907,7021,
492,areia branca,rio grande do norte,brazil,-4.95611,-37.13694,18372,
493,villefranche,occitanie,france,43.42401,0.72709,143,
495,new brighton,canterbury,new zealand,-43.51667,172.73333,6180,
497,frasnes lez gosselies,wallonia,belgium,50.53838,4.45232,3356,
498,oak ridge,north carolina,united states,36.17347,-79.98893,6671,Greensboro-High Point NC MSA
499,weldon spring,missouri,united states,38.71339,-90.68929,5575,
501,shady grove,pennsylvania,united states,39.7779,-77.6686,0,PA NONMETROPOLITAN AREA
503,winterset,iowa,united states,41.33082,-94.01384,5176,Des Moines-West Des Moines IA MSA
504,st mary s,alaska,united states,62.0534,-163.17787,550,MD NONMETROPOLITAN AREA
506,stavern,vestfold og telemark,norway,59.0,10.03333,5593,
507,yennora,new south wales,australia,-33.86173,150.96865,1608,
508,javene,bretagne,france,48.3192,-1.2158,2073,
510,oudenhoorn,zuid holland,netherlands,51.8269,4.1917,1530,
512,karnes city,texas,united states,28.88498,-97.90084,3371,TX NONMETROPOLITAN AREA
515,pleasant ridge,michigan,united states,42.47115,-83.14215,2556,Detroit-Warren-Livonia MI MSA
516,sweet home,oregon,united states,44.39762,-122.7362,9270,OR NONMETROPOLITAN AREA
517,west union,ohio,united states,38.79452,-83.54519,3179,OH NONMETROPOLITAN AREA
518,humaita,amazonas,brazil,-7.51651,-63.03105,31206,
520,le noirmont,jura,switzerland,47.22464,6.95784,1617,
521,neptune city,new jersey,united states,40.20011,-74.02792,4803,
522,trevi,umbria,italy,42.87769,12.74938,4906,
523,los vilos,coquimbo,chile,-31.9,-71.5167,21382,
524,yeosu,jeollanam do,south korea,34.76062,127.66215,295538,
525,regents park,queensland,australia,-27.67664,153.04165,10943,
526,vertolaye,auvergne rhone alpes,france,45.64951,3.7072,652,
528,modrice,south moravian,czechia,49.11928,16.60446,3866,
529,yeadon,england,united kingdom,53.86437,-1.68743,37379,
530,ferrum,virginia,united states,36.92292,-80.01337,2043,Roanoke VA MSA
532,haskovo,haskovo,bulgaria,41.93415,25.55557,79699,
533,ashtead,england,united kingdom,51.30873,-0.29972,13494,
534,bosschenhoofd,north brabant,netherlands,51.56083,4.54028,1925,
535,lauwersoog,groningen,netherlands,53.40468,6.21418,130,
536,sloane,new south wales,australia,-35.9167,146.017,0,
537,university village,utah,united states,40.7527,-111.8347,0,
538,lake barrington,illinois,united states,42.21252,-88.15258,4973,
539,orimattila,paijat hame,finland,60.80487,25.72964,14603,
540,hillington,norfolk,united kingdom,52.8002,0.5473,400,
541,limay,central luzon,philippines,14.56194,120.59833,52824,
543,warren afb,wyoming,united states,41.1488,-104.8618,2456,Cheyenne WY MSA
544,łaziska gorne,silesia,poland,50.14952,18.84215,21983,
545,immenstadt im allgau,bavaria,germany,47.55996,10.21394,14431,
546,creon,nouvelle aquitaine,france,44.77456,-0.34817,3139,
547,bethany,west virginia,united states,40.20563,-80.55674,1029,Weirton-Steubenville WV-OH MSA
548,bollene,provence alpes cote d azur,france,44.28124,4.74891,14703,
549,spakenburg,utrecht,netherlands,52.25,5.36667,4375,
550,denbigh,wales,united kingdom,53.18333,-3.41667,8514,
551,saint nom la breteche,ile de france,france,48.85942,2.02233,4828,
552,witzenhausen,hesse,germany,51.34103,9.8554,16055,
555,larose,louisiana,united states,29.57244,-90.38175,7400,Houma-Bayou Cane-Thibodaux LA MSA
556,smethwick,sandwell,united kingdom,52.4928,-1.9682,14146,
557,colombier,bourgogne franche comte,france,47.66323,6.21012,391,
558,glomfjord,nordland,norway,66.81663,13.94404,1204,
559,jacmel,sud est,haiti,18.23427,-72.53539,137966,
560,peosta,iowa,united states,42.45056,-90.85041,1618,Dubuque IA MSA
561,eygelshoven,limburg,netherlands,50.8925,6.0592,5954,
562,levico terme,trentino alto adige,italy,46.01217,11.30427,6171,
564,alestrup,north denmark,denmark,56.6947,9.49336,2740,
565,fargelanda,vastra gotaland,sweden,58.56816,11.99235,1986,
566,bridgeport,pennsylvania,united states,40.10511,-75.34518,4564,Philadelphia-Camden-Wilmington PA-NJ-DE-MD MSA
567,oksbøl,south denmark,denmark,55.6268,8.28757,2818,
568,denali national park,alaska,united states,63.54078,-151.72361,217,AK NONMETROPOLITAN AREA
569,pepperdine university,california,united states,34.0423,-118.7092,0,
570,tikrit,salah ad din,iraq,34.61581,43.67861,42477,
571,perisher valley,new south wales,australia,-36.4147,148.3825,0,
572,casirate d adda,lombardy,italy,45.49535,9.56932,3543,
573,jefferson,ohio,united states,41.73867,-80.76981,3041,OH NONMETROPOLITAN AREA
574,hewlett,new york,united states,40.64316,-73.69569,6819,New York-Northern New Jersey-Long Island NY-NJ-PA MSA
575,bellbrook,ohio,united states,39.63562,-84.07077,7053,Dayton OH MSA
576,rathmines,new south wales,australia,-33.03773,151.58443,1836,
577,vinderup,central jutland,denmark,56.48176,8.77991,3095,
578,ørsta,møre og romsdal,norway,62.19983,6.12904,6337,
579,lalin,galicia,spain,42.66085,-8.11285,20158,
580,union gap,washington,united states,46.55735,-120.47506,6037,
581,avintes,porto,portugal,41.10711,-8.55131,11577,
582,alden,new york,united states,42.90006,-78.49197,2589,Buffalo-Niagara Falls NY MSA
583,appomattox,virginia,united states,37.35709,-78.82529,1759,Lynchburg VA MSA
585,upper merion,pennsylvania,united states,40.0902,-75.3791,30260,
586,gits,flanders,belgium,50.99687,3.09564,4127,
587,cassa de la selva,catalonia,spain,41.88784,2.87524,8504,
588,machynlleth,wales,united kingdom,52.58965,-3.85308,2235,
589,sparta,north carolina,united states,36.50541,-81.12092,1726,NC NONMETROPOLITAN AREA
592,cherepovets,vologda,russia,59.13333,37.9,315738,
593,olyphant,pennsylvania,united states,41.46841,-75.60297,5111,Scranton--Wilkes-Barre PA MSA
595,middle village,new york,united states,40.71649,-73.88125,29491,New York-Northern New Jersey-Long Island NY-NJ-PA MSA
596,bruino,piedmont,italy,45.01506,7.47754,8070,
597,maracana,para,brazil,-0.76614,-47.45371,12682,
598,saint denis de cabanne,auvergne rhone alpes,france,46.17249,4.21447,1323,
599,versoix,geneva,switzerland,46.28382,6.16214,11467,
601,thillois,grand est,france,49.25619,3.95404,231,
602,lasalle,illinois,united states,41.3575,-89.0718,8986,Chicago-Naperville-Joliet IL-IN-WI MSA
603,oroszlany,komarom esztergom,hungary,47.48671,18.31225,20271,
604,center city,pennsylvania,united states,39.9512,-75.15923,57239,Minneapolis-St. Paul-Bloomington MN-WI MSA
605,laxenburg,lower austria,austria,48.06833,16.35607,2828,
606,jasola,jammu and kashmir,india,33.0779,75.7086,0,
607,plouguerneau,brittany,france,48.60676,-4.50638,5883,
608,alto araguaia,mato grosso,brazil,-17.31472,-53.21528,8780,
609,volterra,tuscany,italy,43.40251,10.86152,6864,
610,munkedal,vastra gotaland,sweden,58.46634,11.67345,3910,
611,canadian,texas,united states,35.91282,-100.38208,3013,TX NONMETROPOLITAN AREA
612,castiglione della pescaia,tuscany,italy,42.76854,10.87746,3860,
613,san carlos,nuble,chile,-36.42477,-71.958,31517,
614,aldgate,south australia,australia,-35.01667,138.73333,3276,
616,gwinner,north dakota,united states,46.2258,-97.6626,834,ND NONMETROPOLITAN AREA
617,vinkel,north brabant,netherlands,51.70583,5.4625,60,
618,florida gulf coast university,florida,united states,26.4613,-81.7687,0,
619,cario,michoacan,mexico,19.3675,-102.04639,11,
620,east hills,new york,united states,40.79371,-73.62707,7155,
621,modimolle,limpopo,south africa,-24.7,28.4,20527,
622,kallby,vastra gotaland,sweden,58.50999,13.30582,1737,
623,pilas,andalusia,spain,37.30337,-6.30097,13386,
624,akarp,skane,sweden,55.65396,13.11107,5959,
625,indianola,pennsylvania,united states,40.5695,-79.8637,0,Pittsburgh PA MSA
627,llanes,asturias,spain,43.41982,-4.75485,14013,
628,st james,new york,united states,40.8761,-73.1521,13671,New York-Northern New Jersey-Long Island NY-NJ-PA MSA
629,althofen,carinthia,austria,46.87298,14.47449,3531,
630,perry point,maryland,united states,39.5543,-76.0719,0,Philadelphia-Camden-Wilmington PA-NJ-DE-MD MSA
631,pontes,provence alpes cote d azur,france,43.5843,5.3894,0,
632,monticello,kentucky,united states,36.82979,-84.84911,6090,KY NONMETROPOLITAN AREA
635,waterfall,new south wales,australia,-34.13376,150.99292,480,
638,heelsum,gelderland,netherlands,51.98417,5.75833,3175,
639,hot springs,south dakota,united states,43.43165,-103.47436,3532,SD NONMETROPOLITAN AREA
641,saltsjobaden,stockholm,sweden,59.28333,18.3,9477,
642,taraz,zhambyl,kazakhstan,42.9,71.36667,358153,
643,horta,catalonia,spain,41.43628,2.15725,26676,
644,linville,north carolina,united states,36.0675,-81.8714,0,NC NONMETROPOLITAN AREA
645,semecourt,grand est,france,49.1944,6.13742,898,
646,puyricard,provence alpes cote d azur,france,43.5804,5.4229,0,
648,chillicothe,illinois,united states,40.92226,-89.4862,6226,Peoria IL MSA
650,manlius,new york,united states,43.00201,-75.97686,4630,Syracuse NY MSA
651,drimmelen,north brabant,netherlands,51.70667,4.80417,450,
652,green island,new york,united states,42.74424,-73.69151,2612,
654,terschuur,gelderland,netherlands,52.165,5.51667,1480,
655,warrawong,new south wales,australia,-34.485,150.88833,4757,
656,pine grove,pennsylvania,united states,40.54842,-76.38468,2142,PA NONMETROPOLITAN AREA
657,cabra,leinster,ireland,53.36694,-6.29444,4389,
658,sacred heart university,connecticut,united states,41.2215,-73.2442,0,
659,tarm,central jutland,denmark,55.90861,8.53041,4016,
661,bolling,north rhine westphalia,germany,51.2929,7.5596,0,Washington-Arlington-Alexandria DC-VA-MD-WV MSA
662,magaliesburg,gauteng,south africa,-26.0,27.5458,0,
664,ban khao lak,phang nga,thailand,8.61501,98.23994,1700,
665,lyneham,australian capital territory,australia,-35.2398,149.13074,5085,
666,barchon,wallonia,belgium,50.66894,5.7001,1177,
667,bleskensgraaf,south holland,netherlands,51.8725,4.78333,2800,
668,cottondale,alabama,united states,33.1922,-87.4544,3136,Tuscaloosa AL MSA
669,salvaleon de higuey,la altagracia,dominican republic,18.61501,-68.70798,123787,
670,beaver creek,montana,united states,48.55444,-109.79215,271,CO NONMETROPOLITAN AREA
671,graneros,o higgins region,chile,-34.06863,-70.72747,23301,
673,marnes la coquette,ile de france,france,48.82732,2.17151,1595,
674,laredo,cantabria,spain,43.4098,-3.41613,12591,
678,coplay,pennsylvania,united states,40.6701,-75.49546,3229,Allentown-Bethlehem-Easton PA-NJ MSA
680,geesteren,gelderland,netherlands,52.13917,6.52639,555,
682,l escala,catalonia,spain,42.12562,3.13261,10417,
683,ramsey,ramsey,isle of man,54.32273,-4.38526,7309,
684,jesmond,new south wales,australia,-32.90275,151.69072,3100,
685,town hall,massachusetts,united states,42.0654,-70.8662,0,
691,north salem,new york,united states,41.333,-73.6042,5167,New York-Northern New Jersey-Long Island NY-NJ-PA MSA
692,boxholm,ostergotland,sweden,58.19719,15.05376,3269,
693,charlottenberg,varmland,sweden,59.88422,12.30398,2368,
698,thompson,connecticut,united states,41.95871,-71.86257,9358,CT NONMETROPOLITAN AREA
699,schiphol,noord holland,netherlands,52.3,4.75,0,
701,carabanchel,madrid,spain,40.39094,-3.7242,253678,
703,ville platte,louisiana,united states,30.68797,-92.27152,7264,LA NONMETROPOLITAN AREA
704,malkara,tekirdag,turkey,40.89,26.90111,27427,
705,lynwood,western australia,australia,-32.04013,115.92888,3400,Los Angeles-Long Beach-Santa Ana CA MSA
706,rostrenen,brittany,france,48.23618,-3.31724,4011,
707,dubois,wyoming,united states,43.53357,-109.63043,987,WY NONMETROPOLITAN AREA
708,serpa,beja,portugal,37.94581,-7.59754,6586,
709,high blantyre,scotland,united kingdom,55.78438,-4.10007,16739,
710,barrio norte,ciudad de mexico,mexico,19.35,-99.2,0,
711,luttelgeest,flevoland,netherlands,52.7431,5.8525,0,
712,walker,minnesota,united states,47.10135,-94.58722,928,MN NONMETROPOLITAN AREA
713,conchali,region metropolitana,chile,-33.35,-70.6167,0,
715,trotwood,ohio,united states,39.79728,-84.31133,24096,
716,miami,arizona,united states,33.39922,-110.86872,1783,Miami-Fort Lauderdale-Pompano Beach FL MSA
717,soumagne,wallonia,belgium,50.61385,5.74679,15237,
718,rosemary beach,florida,united states,30.28,-86.0161,0,
719,girdwood,alaska,united states,60.9425,-149.16639,2250,Anchorage AK MSA
720,siena college,new york,united states,42.719,-73.75,0,
722,meeker,colorado,united states,40.03747,-107.91313,2362,CO NONMETROPOLITAN AREA
724,new hampton,iowa,united states,43.05914,-92.31768,3452,IA NONMETROPOLITAN AREA
728,taplow,buckinghamshire,united kingdom,51.531,-0.687,1669,
729,froyennes,wallonia,belgium,50.62185,3.35456,2075,
730,seadrift,texas,united states,28.41528,-96.71359,1474,Victoria TX MSA
731,margaux,nouvelle aquitaine,france,45.04144,-0.67652,1455,
732,sussex,new jersey,united states,41.20982,-74.60766,2043,New York-Northern New Jersey-Long Island NY-NJ-PA MSA
733,montreat,north carolina,united states,35.64428,-82.3029,723,Asheville NC MSA
734,benodet,brittany,france,47.87531,-4.1058,2898,
736,headingley,england,united kingdom,53.82205,-1.5782,300,
737,skutskar,uppsala,sweden,60.62507,17.41552,6279,
738,rutherglen,scotland,united kingdom,55.82885,-4.21376,31180,
740,barbate,andalusia,spain,36.19237,-5.92186,22551,
743,tuitjenhorn,noord holland,netherlands,52.7333,4.75,0,
744,kewaunee,wisconsin,united states,44.45833,-87.50314,2876,Green Bay WI MSA
745,dramaga,jawa barat,indonesia,-6.5722,106.7378,0,
746,longbridge,birmingham,united kingdom,52.395,-1.979,25410,
748,hoornaar,south holland,netherlands,51.87917,4.94722,440,
749,nykøbing sjælland,zealand,denmark,55.92491,11.67109,5596,
751,breuil cervinia,aosta valley,italy,45.93394,7.63178,753,
753,agana,veneto,italy,45.99328,11.78265,122,
755,woodmere,ohio,united states,41.46228,-81.48067,864,New York-Northern New Jersey-Long Island NY-NJ-PA MSA
756,sabana grande,sabana grande,puerto rico,18.07774,-66.96045,8961,
757,la bisbal d emporda,catalonia,spain,41.95,3.05,10385,
758,la maddalena,sardinia,italy,41.21424,9.40833,10297,
759,argentre du plessis,brittany,france,48.05697,-1.14601,4007,
760,jackson,alabama,united states,31.50905,-87.89444,4967,Jackson MS MSA
761,weil der stadt,baden wurttemberg,germany,48.74953,8.87176,19338,
762,fairlee,vermont,united states,43.90757,-72.14342,189,VT NONMETROPOLITAN AREA
763,geyserville,california,united states,38.70769,-122.9025,862,Santa Rosa-Petaluma CA MSA
764,hierden,gelderland,netherlands,52.3583,5.6758,0,
765,majorstuen,oslo,norway,59.9288,10.7153,0,
766,zona 179,basilicate,italy,41.00313,15.61868,2476,
767,los alcazares,murcia,spain,37.74425,-0.85041,15674,
768,peize,drenthe,netherlands,53.14667,6.49722,4295,
769,madison,north carolina,united states,36.38542,-79.95949,2197,Greensboro-High Point NC MSA
770,rognac,provence alpes cote d azur,france,43.48761,5.23387,12254,
775,ledyard,connecticut,united states,41.43982,-72.01424,15212,Norwich-New London CT MSA
776,estella,new south wales,australia,-35.07254,147.35748,2196,
777,askersund,orebro,sweden,58.87988,14.9023,3997,
779,lynbrook,victoria,australia,-38.05588,145.25615,8482,New York-Northern New Jersey-Long Island NY-NJ-PA MSA
780,meeuwen,flanders,belgium,51.0991,5.52106,5668,
782,nuwara eliya,central,sri lanka,6.97078,80.78286,27500,
783,costa brava,baja california,mexico,30.7375,-116.04417,24,
784,netphen,north rhine westphalia,germany,50.91667,8.1,25163,
785,techiman,bono east,ghana,7.59054,-1.93947,69720,
786,moody afb,georgia,united states,30.9715,-83.1954,1232,Valdosta GA MSA
787,lexington,missouri,united states,39.18473,-93.87994,4598,Lexington-Fayette KY MSA
788,korinthos,peloponnese,greece,37.94007,22.9513,30176,
789,central park,washington,united states,46.97343,-123.69239,2685,
790,castelo,espirito santo,brazil,-20.60361,-41.18472,20198,
792,penestin,brittany,france,47.48151,-2.47558,1627,
793,die,auvergne rhone alpes,france,44.7536,5.37033,4924,
794,bouge,wallonia,belgium,50.47193,4.89218,4486,
795,saint saturnin,pays de la loire,france,48.06461,0.16007,2281,
796,legal,alberta,canada,53.9492,-113.595,1345,
797,rocquencourt,ile de france,france,48.83783,2.10228,3389,
798,achterveld,utrecht,netherlands,52.1361,5.4969,0,
800,capurso,apulia,italy,41.04598,16.92168,13958,
801,araure,portuguesa,venezuela,9.58144,-69.23851,181820,
802,boyalık,istanbul,turkey,41.26337,28.63142,11835,
804,paimio,southwest finland,finland,60.45671,22.68694,10126,
805,correia pinto,santa catarina,brazil,-27.58472,-50.36111,13752,
806,bevaix,neuchatel,switzerland,46.92958,6.8147,3866,
807,slippery rock university,pennsylvania,united states,41.0647,-80.0419,2284,
809,dubna,moscow oblast,russia,56.73333,37.16667,60604,
810,kennington,victoria,australia,-36.77128,144.30298,5545,
811,skodsborg,capital region,denmark,55.8225,12.57324,1244,
813,wawa,niger,nigeria,9.90222,4.41917,10200,
814,speculator,new york,united states,43.49729,-74.36181,314,NY NONMETROPOLITAN AREA
815,cancale,brittany,france,48.6766,-1.85216,5751,
817,osted,zealand,denmark,55.56228,11.95786,2172,
818,vaderstad,ostergotland,sweden,58.31667,14.91667,573,
819,woodville,south australia,australia,-34.877,138.54291,2915,
820,strathmore,victoria,australia,-37.73563,144.92065,8227,
821,welling,england,united kingdom,51.46246,0.10759,42500,
822,solo,jawa tengah,indonesia,-7.7053,110.7989,0,
823,bubikon,zurich,switzerland,47.26698,8.8179,2052,
825,usingen,hesse,germany,50.33554,8.53688,13511,
826,chevilly,centre,france,48.02973,1.87402,2510,
827,montgomery,pennsylvania,united states,41.17036,-76.87691,1558,Williamsport PA MSA
828,berry college,georgia,united states,34.291,-85.1878,0,
829,jardim botanico,rio de janeiro,brazil,-22.9621,-43.2233,0,
830,east boston,new york,united states,43.0834,-75.8174,0,
831,spring hill,queensland,australia,-27.46141,153.02311,7213,Tampa-St. Petersburg-Clearwater FL
832,cidade de deus,rio de janeiro,brazil,-22.9488,-43.3649,0,
833,bras,provence alpes cote d azur,france,43.47163,5.95486,1888,
835,riviera,piedmont,italy,44.28693,7.97832,22,
837,serta,castelo branco,portugal,39.80205,-8.09589,5636,
838,aurora,nebraska,united states,40.86723,-98.00422,4496,NE NONMETROPOLITAN AREA
839,laarne,flanders,belgium,51.03078,3.85077,11600,
840,stanmore,harrow,united kingdom,51.618,-0.314,23700,
841,conneaut,ohio,united states,41.94756,-80.55424,12712,OH NONMETROPOLITAN AREA
842,nastola,paijat hame,finland,60.95,25.93333,14911,
843,ruswil,lucerne,switzerland,47.08425,8.12645,6432,
845,rouvroy,hauts de france,france,50.39247,2.90396,9122,
846,saint denis de gastines,pays de la loire,france,48.34205,-0.85763,1764,
847,herzogenbuchsee,bern,switzerland,47.18795,7.7062,5522,
848,samedan,grisons,switzerland,46.53399,9.87276,2700,
849,gladwyne,pennsylvania,united states,40.0407,-75.2791,0,Philadelphia-Camden-Wilmington PA-NJ-DE-MD MSA
850,nordfjordeid,vestland,norway,61.9122,5.98557,2553,
851,mount edgecombe,kwazulu natal,south africa,-29.721,31.05,0,
853,rosario do sul,rio grande do sul,brazil,-30.25833,-54.91417,36721,
855,rawdon,quebec,canada,46.05007,-73.71587,5188,
856,contrexeville,grand est,france,48.18424,5.89572,4181,
858,soreang,west java,indonesia,-7.03306,107.51833,150932,
859,couva,couva tabaquite talparo,trinidad and tobago,10.42248,-61.46748,5178,
860,bald head island,north carolina,united states,33.86184,-77.99443,171,Wilmington NC MSA
861,gizycko,warmia masuria,poland,54.03811,21.76441,29972,
862,hjallerup,north denmark,denmark,57.16466,10.14571,4192,
863,institute,west virginia,united states,38.3798,-81.7661,0,Charleston WV MSA
864,insjon,dalarna,sweden,60.67688,15.09487,2141,
865,saint christophe,occitanie,france,44.15169,2.04846,128,
866,keuruu,central finland,finland,62.26667,24.7,10942,
867,ingenio,canary islands,spain,27.91855,-15.43433,29319,
868,kennedale,texas,united states,32.6468,-97.22585,7715,Dallas-Fort Worth-Arlington TX MSA
869,altham,lancashire,united kingdom,53.78,-2.34,1137,
870,sugarcreek,ohio,united states,40.50312,-81.64096,2234,OH NONMETROPOLITAN AREA
871,valbo,gavleborg,sweden,60.65,17.03333,7147,
873,del city,oklahoma,united states,35.44201,-97.44087,22022,
875,bagnacavallo,emilia romagna,italy,44.41402,11.97813,8550,
876,skoghall,varmland,sweden,59.32324,13.46552,13605,
877,baambrugge,utrecht,netherlands,52.24583,4.98889,1010,
878,kaduwela,western,sri lanka,6.9339,79.982,0,
879,mattituck,new york,united states,40.99121,-72.53425,4219,New York-Northern New Jersey-Long Island NY-NJ-PA MSA
881,wiscasset,maine,united states,44.00286,-69.6656,1097,ME NONMETROPOLITAN AREA
882,berkeley springs,west virginia,united states,39.6248,-78.22472,766,Hagerstown-Martinsburg MD-WV MSA
884,nanikon,zurich,switzerland,47.36975,8.68894,1560,
887,oneida,new york,united states,43.09257,-75.65129,11134,Syracuse NY MSA
888,upper saint clair,pennsylvania,united states,40.3359,-80.08339,19229,Pittsburgh PA MSA
889,saint martin de belleville,auvergne rhone alpes,france,45.38175,6.50519,3203,
890,podebrady,central bohemia,czechia,50.14242,15.11881,13128,
891,essington,pennsylvania,united states,39.8621,-75.2971,0,Philadelphia-Camden-Wilmington PA-NJ-DE-MD MSA
893,east cleveland,ohio,united states,41.53311,-81.57901,17344,
894,boves,piedmont,italy,44.32985,7.54733,7089,
895,herenthout,flanders,belgium,51.1401,4.75572,3942,
897,conde,paraiba,brazil,-7.25972,-34.9075,15859,
899,whitianga,waikato,new zealand,-36.83333,175.7,6330,
900,marina di carrara,tuscany,italy,44.03837,10.04142,25000,
901,panheel,limburg,netherlands,51.17583,5.87361,215,
902,fairview,new jersey,united states,40.8126,-73.99903,14451,New York-Northern New Jersey-Long Island NY-NJ-PA MSA
903,kunovice,zlin,czechia,49.04499,17.47011,5148,
904,irvington,new york,united states,41.03922,-73.86823,6607,New York-Northern New Jersey-Long Island NY-NJ-PA MSA
906,simon s town,western cape,south africa,-34.1934,18.43585,6569,
907,fuenterrabia,basque country,spain,43.3687,-1.7961,0,
908,barrow,alaska,united states,71.29058,-156.78872,4384,AK NONMETROPOLITAN AREA
910,bohus,vastra gotaland,sweden,57.85,12.0167,0,
911,arta,arta,djibouti,11.52639,42.85194,6025,
912,chatham,new york,united states,42.36425,-73.59484,1696,NY NONMETROPOLITAN AREA
914,carmel,suffolk,guernsey,49.44,-2.5597,0,Indianapolis-Carmel IN MSA
916,brock,north rhine westphalia,germany,51.8606,8.2303,0,
917,caldera,lombardy,italy,45.13207,9.22648,32,
918,stoke poges,england,united kingdom,51.54441,-0.5888,4204,
919,lake forest park,washington,united states,47.75676,-122.28096,13243,
920,handen,stockholm,sweden,59.16809,18.13796,11524,
921,trenton,ohio,united states,39.48089,-84.45772,12281,Cincinnati-Middletown OH-KY-IN MSA
922,rønde,central jutland,denmark,56.30145,10.47505,2213,
923,cowes,isle of wight,united kingdom,50.7595,-1.3002,10405,
924,alfta,gavleborg,sweden,61.34675,16.07499,2348,
926,south paris,maine,united states,44.22368,-70.51339,2267,ME NONMETROPOLITAN AREA
927,charallave,miranda,venezuela,10.24247,-66.85723,129182,
928,pilar de la horadada,valencia,spain,37.86591,-0.79256,22050,
929,fridolfing,bavaria,germany,47.99773,12.82628,4133,
930,mozzate,lombardy,italy,45.67473,8.95644,8204,
932,bodmin,cornwall,united kingdom,50.466,-4.718,14736,
933,milmort,wallonia,belgium,50.69037,5.59323,2507,
934,ghlin,wallonia,belgium,50.47313,3.90289,8485,
937,hua hin,prachuap khiri khan,thailand,12.57065,99.95876,50456,
938,kraainem,flanders,belgium,50.86155,4.46946,12815,
939,san mateo atenco,mexico,mexico,19.26757,-99.53214,67890,
940,central high,oklahoma,united states,34.62313,-98.08976,1184,
941,cempaka,jawa tengah,indonesia,-7.1717,109.0775,0,
944,roehampton,england,united kingdom,51.45165,-0.24393,16132,
945,norway,maine,united states,44.21396,-70.54478,2748,ME NONMETROPOLITAN AREA
946,birr,leinster,ireland,53.09139,-7.91333,5741,
947,domat ems,graubunden,switzerland,46.8198,9.4545,8037,
948,narva,ida virumaa,estonia,59.37722,28.19028,66980,
949,busalla,liguria,italy,44.5706,8.94545,5216,
950,green tree,pennsylvania,united states,40.41174,-80.04561,4968,Pittsburgh PA MSA
951,white salmon,washington,united states,45.72762,-121.48646,2343,WA NONMETROPOLITAN AREA
954,thorndale,pennsylvania,united states,39.99288,-75.74522,3407,Philadelphia-Camden-Wilmington PA-NJ-DE-MD MSA
955,east valley,nevada,united states,38.9434,-119.69923,1474,
956,linden,flanders,belgium,50.89494,4.77027,5042,
957,mogot,p yongbuk,north korea,39.9116,124.5394,0,
958,mila,mila,algeria,36.45028,6.26444,68831,
959,kowloon tong,alta verapaz,china,22.3331,114.1797,0,
960,piano di sorrento,campania,italy,40.62806,14.41729,12317,
961,mercerville,new jersey,united states,40.23705,-74.68655,13230,
965,march,cambridgeshire,united kingdom,52.551,0.088,22298,
966,blandford,new south wales,australia,-31.78495,150.89349,174,
967,kotzebue,alaska,united states,66.89846,-162.59809,3277,AK NONMETROPOLITAN AREA
968,edinburg,virginia,united states,38.82095,-78.56585,1069,VA NONMETROPOLITAN AREA
969,el viso,andalusia,spain,38.48333,-4.95,2568,
972,kirchheim,hesse,germany,50.83333,9.56667,3913,
973,dussen,north brabant,netherlands,51.73083,4.9625,2528,
974,st georges,delaware,united states,39.5577,-75.6533,767,
975,alresford,england,united kingdom,51.85389,1.00203,2009,
977,lahaska,pennsylvania,united states,40.3465,-75.0316,0,Philadelphia-Camden-Wilmington PA-NJ-DE-MD MSA
978,grand champ,brittany,france,47.75862,-2.84555,4528,
979,ness ziona,central district,israel,31.92933,34.79868,50351,
981,sunds,central jutland,denmark,56.20743,9.01386,3525,
982,ascot vale,victoria,australia,-37.77988,144.92276,14587,
984,manchester by the sea,massachusetts,united states,42.57787,-70.76894,5366,
985,kingfisher,oklahoma,united states,35.86143,-97.93172,4865,OK NONMETROPOLITAN AREA
986,goderich,western area,sierra leone,8.42756,-13.28598,19209,
988,tulln,lower austria,austria,48.32829,16.05858,12421,
989,orewa,auckland,new zealand,-36.56667,174.7,10242,
990,cohoes,new york,united states,42.77424,-73.70012,16538,Albany-Schenectady-Troy NY MSA
991,bottanuco,lombardy,italy,45.63931,9.50903,5121,
992,dunajska streda,trnava,slovakia,47.99268,17.61211,22730,
994,giyani,limpopo,south africa,-23.30246,30.71868,37024,
996,chadwell heath,england,united kingdom,51.57121,0.13271,9598,
997,cern,geneve,switzerland,46.2324,6.0502,0,
999,hampden,maine,united states,44.74452,-68.83698,4343,Bangor ME MSA
1000,palmares,pernambuco,brazil,-8.68333,-35.59167,41679,
1001,carrollton,ohio,united states,40.57284,-81.08565,3137,Dallas-Fort Worth-Arlington TX MSA
1002,mitrovice,mitrovica,kosovo,42.88333,20.86667,107045,
1003,plumsteadville,pennsylvania,united states,40.38733,-75.14656,2637,Philadelphia-Camden-Wilmington PA-NJ-DE-MD MSA
1006,alta,stockholm,sweden,59.26667,18.18333,9274,
1007,agrate,piedmont,italy,45.6754,8.56065,1035,
1009,nacozari de garcia,sonora,mexico,30.37489,-109.68898,11489,
1010,adlington,england,united kingdom,53.61323,-2.60676,7965,
1011,vannas,vasterbotten,sweden,63.90676,19.75712,4373,
1012,tommerup,south denmark,denmark,55.31952,10.20659,1558,
1013,leyton,england,united kingdom,51.55956,-0.00777,14184,
1015,hartlebury,england,united kingdom,52.33333,-2.23333,1525,
1016,pematang,banten,indonesia,-6.0255,105.9626,0,
1018,panuco,veracruz,mexico,22.05378,-98.18192,40754,
1019,far hills,new jersey,united states,40.68427,-74.63571,930,New York-Northern New Jersey-Long Island NY-NJ-PA MSA
1020,glenshaw,pennsylvania,united states,40.53285,-79.96755,8981,Pittsburgh PA MSA
1022,mook,limburg,netherlands,51.7525,5.88194,2715,
1023,ripley,mississippi,united states,34.72982,-88.95062,5357,MS NONMETROPOLITAN AREA
1027,atlanta,texas,united states,33.11374,-94.16435,5605,Atlanta-Sandy Springs-Marietta GA MSA
1028,surahammar,vastmanland,sweden,59.70725,16.22188,6270,
1030,benson,england,united kingdom,51.62073,-1.10979,5802,
1031,riemst,flanders,belgium,50.80995,5.60131,15809,
1033,wentworthville,new south wales,australia,-33.80652,150.96785,11328,
1034,alhandra,lisbon,portugal,38.92732,-9.00864,7226,
1036,winslow,arizona,united states,35.02419,-110.69736,9600,AZ NONMETROPOLITAN AREA
1038,meran,aosta valley,italy,45.71012,7.66705,141,
1040,spydeberg,viken,norway,59.61709,11.08559,3166,
1041,sainte croix,vaud,switzerland,46.82203,6.50283,4214,
1043,galleria,piedmont,italy,44.49001,8.11327,6,
1044,tinglev,south denmark,denmark,54.93788,9.25547,2721,
1046,lebowakgomo,limpopo,south africa,-24.2,29.5,33308,
1047,ashby,new south wales,australia,-29.4318,153.1929,323,
1048,leetsdale,pennsylvania,united states,40.56312,-80.20839,1199,Pittsburgh PA MSA
1051,traiskirchen,lower austria,austria,48.01485,16.29324,6608,
1052,porton,veneto,italy,45.5753,10.80126,31,
1053,kuala,lampung,indonesia,-5.4494,105.303,0,
1054,busan,busan,south korea,35.13333,129.05,3525913,
1055,pont aven,brittany,france,47.85536,-3.74799,3129,
1056,saint sauveur,quebec,canada,45.88686,-74.17943,9191,
1057,shaw,england,united kingdom,53.56667,-2.08333,1001,
1058,den oever,north holland,netherlands,52.93353,5.03079,2145,
1060,east grand rapids,michigan,united states,42.94114,-85.61003,11311,
1061,crystal palace,england,united kingdom,51.41934,-0.07854,12255,
1062,couzeix,nouvelle aquitaine,france,45.87645,1.23842,6942,
1063,nusantara,jawa barat,indonesia,-6.7619,108.5432,0,
1064,poza rica,baja california,mexico,32.51222,-116.58417,6,
1066,utena,utena,lithuania,55.49764,25.59918,33240,
1069,babson park,massachusetts,united states,42.2987,-71.2595,0,Boston-Cambridge-Quincy MA-NH MSA
1070,heby,uppsala,sweden,59.93815,16.86217,2724,
1071,prelouc,pardubicky,czechia,50.03985,15.56031,8586,
1073,maliano,cantabria,spain,43.4186,-3.835,0,
1074,czarnkow,greater poland,poland,52.90214,16.56413,11562,
1075,hapeville,georgia,united states,33.66011,-84.4102,6650,
1076,cotabato,autonomous region in muslim mindanao,philippines,7.22361,124.24639,179433,
1077,bechar,bechar,algeria,31.61667,-2.21667,143382,
1078,quinnipiac university,connecticut,united states,41.4174,-72.899,0,
1079,albarraque,lisboa,portugal,38.7628,-9.3485,0,
1080,kalajoki,north ostrobothnia,finland,64.25,23.95,8869,
1082,løkken,north denmark,denmark,57.37047,9.71466,8828,
1083,tørring,central jutland,denmark,55.85,9.48333,2370,
1084,erlenbach,baden wurttemberg,germany,49.1725,9.26833,4853,
1086,walkden,england,united kingdom,53.51667,-2.4,35937,
1088,hunnebostrand,vastra gotaland,sweden,58.44127,11.3032,2053,
1089,fort mcpherson,northwest territories,canada,67.43863,-134.88543,700,
1090,kinloss,scotland,united kingdom,57.63494,-3.57012,1250,
1091,lajes,azores,portugal,38.76352,-27.10336,3744,
1092,goddard,kansas,united states,37.65974,-97.57533,4719,Wichita KS MSA
1095,banjarnegara,jawa tengah,indonesia,-7.3594,109.47,0,
1096,brunnen,bavaria,germany,48.22956,10.97332,1609,
1097,roquefort la bedoule,provence alpes cote d azur,france,43.24883,5.59015,4946,
1098,diliman,quezon,philippines,14.6458,121.0532,0,
1099,khujand,sughd,tajikistan,40.28256,69.62216,144865,
1100,island park,new york,united states,40.60427,-73.65541,4766,New York-Northern New Jersey-Long Island NY-NJ-PA MSA
1101,fox point,wisconsin,united states,43.15751,-87.90175,6755,
1102,azkoitia,basque country,spain,43.17744,-2.31129,11266,
1105,san vicente,san vicente,el salvador,13.63333,-88.8,41504,
1106,steinhagen,north rhine westphalia,germany,52.0,8.4,19869,
1107,løgumkloster,south denmark,denmark,55.05941,8.95508,3550,
1108,ravello,campania,italy,40.64932,14.61167,1523,
1109,siddeburen,groningen,netherlands,53.25,6.86806,2910,
1110,elmendorf,texas,united states,29.25607,-98.33279,1688,San Antonio TX MSA
1111,merak,jawa barat,indonesia,-6.1686,106.4408,0,
1112,kutztown university,pennsylvania,united states,40.5103,-75.785,3604,
1113,lonoke,arkansas,united states,34.78398,-91.89986,4249,Little Rock-North Little Rock-Conway AR MSA
1114,west union,south carolina,united states,34.75982,-83.04293,312,SC NONMETROPOLITAN AREA
1115,vierpolders,south holland,netherlands,51.87917,4.17917,1215,
1117,fairfield university,connecticut,united states,41.159,-73.2571,0,
1118,les mathes,nouvelle aquitaine,france,45.7175,-1.14838,1560,
1120,ribadeo,galicia,spain,43.53704,-7.04095,9343,
1121,overland,missouri,united states,38.70116,-90.36234,15959,
1122,ganja,gǝncǝ,azerbaijan,40.68278,46.36056,313300,
1123,augustdorf,north rhine westphalia,germany,51.90944,8.73173,9889,
1124,big flats,new york,united states,42.1373,-76.93691,5277,Elmira NY MSA
1125,ar rass,al qassim region,saudi arabia,25.86944,43.4973,81728,
1127,remire montjoly,guyane,french guiana,4.91667,-52.26667,19029,
1128,poza rica,hidalgo,mexico,19.95167,-98.49444,122,
1129,ashton,tameside,united kingdom,53.4897,-2.0952,45198,
1130,malmstrom afb,montana,united states,47.5059,-111.1825,4179,Great Falls MT MSA
1132,avissawella,western,sri lanka,6.953,80.2075,0,
1133,middlebury village,vermont,united states,44.01553,-73.16937,6588,
1135,ellettsville,indiana,united states,39.23393,-86.625,6544,Bloomington IN MSA
1136,largo,southern province,sierra leone,8.27903,-12.1578,3441,Tampa-St. Petersburg-Clearwater FL
1138,chard,somerset,united kingdom,50.8728,-2.9587,13074,
1139,ampara,eastern province,sri lanka,7.29754,81.68202,43720,
1140,lutheran,mecklenburg vorpommern,germany,53.45831,12.00119,337,
1141,yankee,new mexico,united states,36.945,-104.328,0,
1142,gebeng,pahang,malaysia,3.9679,103.4319,0,
1144,pimlico,new south wales,australia,-28.9152,153.4846,300,
1145,saint davids,wales,united kingdom,51.88094,-5.26554,1800,
1146,lubartow,lublin,poland,51.46026,22.60952,22839,
1147,arden,north denmark,denmark,56.76899,9.86184,2516,
1148,cass lake,minnesota,united states,47.3794,-94.60415,747,MN NONMETROPOLITAN AREA
1149,domdidier,fribourg,switzerland,46.86716,7.01337,2353,
1150,lago,braga,portugal,41.62148,-8.41258,1910,
1151,canning,buenos aires,argentina,-34.8833,-58.5167,0,
1152,montalto uffugo,calabria,italy,39.40331,16.15534,2751,
1153,lake placid,florida,united states,27.35197,-81.32631,2164,FL NONMETROPOLITAN AREA
1154,augustow,podlasie,poland,53.84321,22.97979,29752,
1155,wadesboro,north carolina,united states,34.96821,-80.07673,5584,Charlotte-Gastonia-Concord NC-SC MSA
1156,grantville,pennsylvania,united states,40.3779,-76.6464,0,Harrisburg-Carlisle PA MSA
1157,charkhi dadri,haryana,india,28.59166,76.27161,50558,
1158,protaras,ammochostos,cyprus,35.0125,34.05833,20230,
1159,sankt anton am arlberg,tirol,austria,47.1167,10.2667,2417,
1160,reek,north brabant,netherlands,51.74583,5.68194,1495,
1162,hatfield,massachusetts,united states,42.37092,-72.59814,1318,Springfield MA MSA
1163,medinah,illinois,united states,41.98142,-88.05118,2097,Chicago-Naperville-Joliet IL-IN-WI MSA
1164,grantsburg,wisconsin,united states,45.77634,-92.6827,1289,WI NONMETROPOLITAN AREA
1165,cannon beach,oregon,united states,45.89177,-123.96153,1702,OR NONMETROPOLITAN AREA
1166,kankaanpaa,satakunta,finland,61.8,22.41667,12381,
1167,emmer compascuum,drenthe,netherlands,52.81167,7.04722,8130,
1168,ploneour lanvern,brittany,france,47.90324,-4.28346,5038,
1169,honington,england,united kingdom,52.33571,0.8075,323,
1170,aker brygge,oslo,norway,59.9099,10.725,0,
1173,izernore,auvergne rhone alpes,france,46.21352,5.552,1822,
1174,shippensburg university,pennsylvania,united states,40.0618,-77.5228,1937,
1175,howard beach,new york,united states,40.65788,-73.83625,26148,New York-Northern New Jersey-Long Island NY-NJ-PA MSA
1179,libby,montana,united states,48.38829,-115.556,2645,MT NONMETROPOLITAN AREA
1183,avondale,louisiana,united states,29.91298,-90.20369,4954,Philadelphia-Camden-Wilmington PA-NJ-DE-MD MSA
1197,glendale,colorado,united states,39.70499,-104.93359,5198,Los Angeles-Long Beach-Santa Ana CA MSA
1200,folsom,new jersey,united states,39.60206,-74.84267,1851,Philadelphia-Camden-Wilmington PA-NJ-DE-MD MSA
1202,bloomingdale,new jersey,united states,41.00204,-74.32654,8215,Kalamazoo-Portage MI MSA
1207,hopkinton,new hampshire,united states,43.19147,-71.67535,5676,Boston-Cambridge-Quincy MA-NH MSA
1208,new britain,pennsylvania,united states,40.299,-75.18101,3017,Hartford-West Hartford-East Hartford CT MSA
1210,summit,illinois,united states,41.78809,-87.81033,11389,SD NONMETROPOLITAN AREA
1222,auburn,michigan,united states,43.60336,-84.0697,2113,Auburn-Opelika AL MSA
1227,cumberland,maine,united states,43.7933,-70.258,7998,Cumberland MD-WV MSA
1229,camilla,georgia,united states,31.23129,-84.21046,5089,GA NONMETROPOLITAN AREA
1236,queenstown,maryland,united states,38.99067,-76.15773,652,Baltimore-Towson MD MSA
1248,great valley,new york,united states,42.1966,-78.6358,1857,NY NONMETROPOLITAN AREA
1251,lindenhurst,illinois,united states,42.41058,-88.02619,14408,New York-Northern New Jersey-Long Island NY-NJ-PA MSA
1260,edwardsville,pennsylvania,united states,41.26953,-75.91631,4732,Kansas City MO-KS MSA
1263,stanley,north dakota,united states,48.31724,-102.39045,2721,IA NONMETROPOLITAN AREA
1268,little creek,delaware,united states,39.16706,-75.44825,233,Dover DE MSA
1269,pine mountain,georgia,united states,32.86485,-84.8541,1358,Columbus GA-AL MSA
1271,luling,texas,united states,29.68051,-97.6475,5764,New Orleans-Metairie-Kenner LA MSA
1278,shelby,mississippi,united states,33.95094,-90.76788,2123,MS NONMETROPOLITAN AREA
1279,duck,north carolina,united states,36.16961,-75.75519,383,Charleston WV MSA
1286,windsor,new hampshire,united states,43.1124,-72.0179,207,York-Hanover PA MSA
1298,saint marys,pennsylvania,united states,41.42784,-78.56086,13070,GA NONMETROPOLITAN AREA
1301,beavercreek,oregon,united states,45.2879,-122.53564,4485,Portland-Vancouver-Beaverton OR-WA MSA
1314,south lebanon,ohio,united states,39.37089,-84.21327,4346,Cincinnati-Middletown OH-KY-IN MSA
1316,maurice,louisiana,united states,30.10854,-92.12457,1266,LA NONMETROPOLITAN AREA
1318,westmont,california,united states,33.9414,-118.3023,31853,Chicago-Naperville-Joliet IL-IN-WI MSA
1320,new river,arizona,united states,33.91587,-112.13599,14952,Blacksburg-Christiansburg-Radford VA MSA
1328,anthony,new mexico,united states,32.00399,-106.60583,9293,Las Cruces NM MSA
1330,fontana,wisconsin,united states,42.55141,-88.5751,1720,Riverside-San Bernardino-Ontario CA MSA
1340,washington,pennsylvania,united states,40.17396,-80.24617,13497,Washington-Arlington-Alexandria DC-VA-MD-WV MSA
1344,oakland,pennsylvania,united states,40.30646,-78.88752,1578,San Francisco-Oakland-Fremont CA MSA
1345,three rivers,oregon,united states,43.82012,-121.46919,3014,Springfield MA MSA
1350,sultan,washington,united states,47.8626,-121.81651,4798,Seattle-Tacoma-Bellevue WA MSA
1353,glen oaks,new york,united states,40.74705,-73.71152,6655,New York-Northern New Jersey-Long Island NY-NJ-PA MSA
1358,allendale,california,united states,38.44463,-121.94302,1506,New York-Northern New Jersey-Long Island NY-NJ-PA MSA
1361,mentone,alabama,united states,34.57918,-85.59009,368,AL NONMETROPOLITAN AREA
1372,yorktown,new york,united states,41.2727,-73.8092,36538,Virginia Beach-Norfolk-Newport News VA-NC MSA
1374,triggiano,apulia,italy,41.06549,16.92501,26811,
1376,granichen,aargau,switzerland,47.3593,8.10243,6557,
1377,klingenberg am main,bavaria,germany,49.78507,9.18025,6294,
1379,french lick,indiana,united states,38.54894,-86.61999,1794,IN NONMETROPOLITAN AREA
1380,vemars,ile de france,france,49.06942,2.56643,2177,
1382,lindora,vorumaa,estonia,57.8175,27.3392,14,
1383,virginia,orange free state,south africa,-28.10391,26.86593,122502,VA NONMETROPOLITAN AREA
1384,lestrem,hauts de france,france,50.61987,2.68646,3925,
1385,fort kent,maine,united states,47.25865,-68.58949,2488,ME NONMETROPOLITAN AREA
1386,tres passos,rio grande do sul,brazil,-27.45556,-53.93194,17286,
1387,delaware city,delaware,united states,39.57789,-75.58881,1741,Philadelphia-Camden-Wilmington PA-NJ-DE-MD MSA
1388,alor gajah,melaka,malaysia,2.3804,102.2089,20163,
1390,prien am chiemsee,bavaria,germany,47.85602,12.34623,10872,
1391,huckeswagen,north rhine westphalia,germany,51.14979,7.34471,16369,
1392,mosciano sant angelo,abruzzo,italy,42.747,13.88891,4318,
1393,waynesville,ohio,united states,39.52978,-84.0866,2999,Cincinnati-Middletown OH-KY-IN MSA
1394,heusenstamm,hesse,germany,50.05553,8.80076,19012,
1395,measham,england,united kingdom,52.70644,-1.50637,5209,
1396,saint thonan,brittany,france,48.47993,-4.33669,1238,
1397,vazante,minas gerais,brazil,-17.98694,-46.90778,15459,
1398,husum,schleswig holstein,germany,54.4858,9.05239,20841,
1399,uman,cherkasy oblast,ukraine,48.7501,30.21944,83142,
1400,ipameri,goias,brazil,-17.72194,-48.15972,18607,
1401,wieden,lower austria,austria,48.16667,15.5,39,
1402,estaimpuis,wallonia,belgium,50.70485,3.26785,9340,
1404,coldwater,ohio,united states,40.47977,-84.62829,4487,OH NONMETROPOLITAN AREA
1405,salcombe,england,united kingdom,50.23743,-3.76874,1909,
1406,moron,carabobo,venezuela,10.48715,-68.20078,68084,
1407,barton under needwood,england,united kingdom,52.76268,-1.724,3796,
1408,andover,new jersey,united states,40.98593,-74.74211,581,New York-Northern New Jersey-Long Island NY-NJ-PA MSA
1410,sainte anne,guadeloupe,guadeloupe,16.22564,-61.38098,22859,
1412,butler,western australia,australia,-31.64298,115.70431,13011,
1413,mission valley,arizona,united states,33.3525,-111.8521,0,
1414,jeffersonville,ohio,united states,39.65367,-83.56381,1192,OH NONMETROPOLITAN AREA
1416,ripley,west virginia,united states,38.8187,-81.71069,3255,WV NONMETROPOLITAN AREA
1417,saint clairsville,ohio,united states,40.08063,-80.90009,5184,Wheeling WV-OH MSA
1418,vielsalm,wallonia,belgium,50.28407,5.91502,7291,
1419,financial district,new york,united states,40.70789,-74.00857,60976,
1420,cerro largo,rio grande do sul,brazil,-28.14861,-54.73806,9548,
1421,bagram,parwan,afghanistan,34.9333,69.2333,0,
1422,mumias,kakamega,kenya,0.33474,34.48796,45485,
1423,hurst,england,united kingdom,51.45791,-0.85196,1351,
1425,pavuna,rio de janeiro,brazil,-22.8093,-43.3564,0,
1426,folcroft,pennsylvania,united states,39.89095,-75.2838,6637,Philadelphia-Camden-Wilmington PA-NJ-DE-MD MSA
1427,pinocchio di ancona,the marches,italy,43.58986,13.49413,3367,
1428,yoqne am illit,northern district,israel,32.65385,35.10382,23796,
1429,feucht,bavaria,germany,49.37597,11.21433,13482,
1430,sant angelo lodigiano,lombardy,italy,45.23526,9.40651,11516,
1431,chiaravalle,the marches,italy,43.60114,13.32511,13465,
1432,jaca,aragon,spain,42.56898,-0.54987,13396,
1433,le may sur evre,pays de la loire,france,47.13653,-0.89273,4125,
1436,aubel,wallonia,belgium,50.70189,5.85812,4119,
1437,acton vale,quebec,canada,45.65007,-72.56582,7656,
1438,maquoketa,iowa,united states,42.06891,-90.66569,5989,IA NONMETROPOLITAN AREA
1439,galliano,louisiana,united states,29.44216,-90.29925,7676,Houma-Bayou Cane-Thibodaux LA MSA
1440,longgang,chongqing,china,29.69744,105.71369,74605,
1441,north point,san marcos,china,22.2902,114.1998,0,
1442,furiani,corsica,france,42.65847,9.41446,4337,
1444,pantai,liguria,italy,43.85613,7.95721,109,
1445,rumford,maine,united states,44.55367,-70.5509,4218,ME NONMETROPOLITAN AREA
1446,target,auvergne rhone alpes,france,46.28938,3.06139,250,
1447,moody,alabama,united states,33.59094,-86.49082,12593,Birmingham-Hoover AL MSA
1448,greenville,alabama,united states,31.8296,-86.61775,7845,AL NONMETROPOLITAN AREA
1449,wauchula,florida,united states,27.54726,-81.81147,4935,FL NONMETROPOLITAN AREA
1450,diani,kwale,kenya,-4.2719,39.5689,0,
1452,le mont saint michel,normandy,france,48.63603,-1.51208,80,
1454,roth,bavaria,germany,49.24762,11.09111,25083,
1455,bay pines,florida,united states,27.81419,-82.77816,2931,Tampa-St. Petersburg-Clearwater FL
1456,fulton,new york,united states,43.32285,-76.41716,11552,Syracuse NY MSA
1457,blasdell,new york,united states,42.79728,-78.82337,2592,
1458,walbridge,ohio,united states,41.58783,-83.49327,3109,Toledo OH MSA
1459,cojedes,cojedes,venezuela,9.6167,-68.9167,0,
1461,lansing,kansas,united states,39.24861,-94.90024,11767,Lansing-East Lansing MI MSA
1462,falkensee,brandenburg,germany,52.56014,13.0927,37468,
1463,mal,flanders,belgium,50.76869,5.5197,1154,
1466,espumoso,rio grande do sul,brazil,-28.72472,-52.84972,10340,
1467,andermatt,uri,switzerland,46.63565,8.59388,1258,
1468,illapel,coquimbo region,chile,-31.63349,-71.16967,22816,
1469,skalica,trnava,slovakia,48.8449,17.22635,15013,
1470,burton,england,united kingdom,53.26667,-0.56667,4106,
1471,itau de minas,minas gerais,brazil,-20.73944,-46.75222,14888,
1472,dattwil,aargau,switzerland,47.4556,8.2861,0,
1473,cambuci,rio de janeiro,brazil,-21.57528,-41.91111,9395,
1475,front,piedmont,italy,45.27941,7.66425,709,
1476,ardon,centre,france,47.77934,1.87419,920,
1477,bayside,leinster,ireland,53.38895,-6.14041,4511,
1478,st helena,victoria,australia,-37.68988,145.12315,2846,
1479,campogalliano,emilia romagna,italy,44.68874,10.84705,6234,
1480,zwingenberg,hesse,germany,49.72389,8.61084,7291,
1481,claysburg,pennsylvania,united states,40.29674,-78.44974,1625,Altoona PA MSA
1482,villacidro,sardinia,italy,39.45734,8.74105,12768,
1483,marina,split dalmatia,croatia,43.51472,16.10639,1117,
1485,brookhaven,new york,united states,40.77927,-72.91538,3451,New York-Northern New Jersey-Long Island NY-NJ-PA MSA
1486,hulshorst,gelderland,netherlands,52.36333,5.73194,775,
1487,smalandsstenar,jonkoping,sweden,57.16241,13.41212,4564,
1488,steelpoort,mpumalanga,south africa,-24.73,30.2,0,
1489,la lucia,kwazulu natal,south africa,-29.75,31.058,0,
1490,la estrella,canary islands,spain,28.01259,-16.65442,1000,
1491,sullivan,indiana,united states,39.09532,-87.40585,4155,Terre Haute IN MSA
1492,oakwood village,ontario,canada,43.68278,-79.43833,21210,OH NONMETROPOLITAN AREA
1493,rural hall,north carolina,united states,36.24042,-80.29338,3126,Winston-Salem NC MSA
1494,rensselaer,new york,united states,42.64258,-73.7429,9433,Albany-Schenectady-Troy NY MSA
1495,dobson,north carolina,united states,36.39569,-80.72257,1573,NC NONMETROPOLITAN AREA
1496,anna maria,florida,united states,27.53115,-82.73343,1669,Sarasota-Bradenton-Venice FL MSA
1497,de pinte,flanders,belgium,50.99339,3.64747,10020,
1500,dakhla,souss massa,morocco,30.41145,-9.55344,55618,
1501,torquay,queensland,australia,-25.28496,152.87886,7426,
1502,latisana,friuli venezia giulia,italy,45.76859,13.00618,8896,
1503,kingston,washington,united states,47.7985,-122.49806,2099,Bremerton-Silverdale WA MSA
1504,luang prabang,louangphabang,laos,19.88601,102.13503,47378,
1505,grand baie,riviere du rempart,mauritius,-20.01816,57.58015,11512,
1507,waarschoot,flanders,belgium,51.1525,3.605,7762,
1509,alexandroupoli,east macedonia and thrace,greece,40.84995,25.87644,52979,
1510,savsjo,jonkoping,sweden,57.40327,14.66244,5374,
1511,hingham,england,united kingdom,52.57969,0.98422,2151,
1514,doel,flanders,belgium,51.311,4.26417,110,
1515,northgate,south australia,australia,-34.85784,138.62908,6154,
1516,selebi phikwe,selibe phikwe,botswana,-21.97895,27.84296,53727,
1517,rodos,south aegean,greece,36.43556,28.22199,56128,
1518,belle plaine,saskatchewan,canada,50.4,-105.15,85,
1520,miajadas,extremadura,spain,39.15127,-5.90841,10338,
1521,saint aubin,wallonia,belgium,50.24767,4.57735,838,
1522,vaire,pays de la loire,france,46.60315,-1.75585,1071,
1523,luyksgestel,north brabant,netherlands,51.28917,5.32361,2465,
1524,lancaster,wisconsin,united states,42.84749,-90.71068,3778,WI NONMETROPOLITAN AREA
1527,pauls valley,oklahoma,united states,34.74008,-97.22225,6152,OK NONMETROPOLITAN AREA
1528,shipshewana,indiana,united states,41.67283,-85.58026,684,IN NONMETROPOLITAN AREA
1529,green brook,new jersey,united states,40.6038,-74.4825,7114,
1530,east islip,new york,united states,40.73204,-73.18567,14475,New York-Northern New Jersey-Long Island NY-NJ-PA MSA
1531,boxford,massachusetts,united states,42.6612,-70.99672,2339,Boston-Cambridge-Quincy MA-NH MSA
1532,stoneleigh,england,united kingdom,52.35,-1.51667,341,
1533,kentville,queensland,australia,-27.48333,152.43333,96,
1534,lovington,new mexico,united states,32.94401,-103.34855,11800,NM NONMETROPOLITAN AREA
1535,gibson city,illinois,united states,40.45843,-88.3846,3409,Champaign-Urbana IL MSA
1536,bath,pennsylvania,united states,40.72565,-75.39407,2667,Allentown-Bethlehem-Easton PA-NJ MSA
1537,stange,innlandet,norway,60.71803,11.19417,2416,
1538,luke,tartu,estonia,58.24028,26.53667,335,Phoenix-Mesa-Scottsdale AZ MSA
1539,hochfelden,zurich,switzerland,47.52262,8.51564,1442,
1540,waal,bavaria,germany,47.99679,10.77786,2152,
1541,auning,central jutland,denmark,56.43079,10.37818,2941,
1544,deadwood,south dakota,united states,44.37665,-103.72964,1258,SD NONMETROPOLITAN AREA
1545,islip,new york,united states,40.72982,-73.21039,18689,New York-Northern New Jersey-Long Island NY-NJ-PA MSA
1546,nove zamky,nitriansky kraj,slovakia,47.98544,18.16195,37899,
1548,rye brook,new york,united states,41.01926,-73.68346,9611,
1549,red lodge,montana,united states,45.18578,-109.24682,2222,Billings MT MSA
1550,jnah,mont liban,lebanon,33.8667,35.4833,0,
1551,springdale,pennsylvania,united states,40.5409,-79.78394,3375,Pittsburgh PA MSA
1552,almazora,valencia,spain,39.9403,-0.0625,26742,
1554,muzaffargarh,punjab,pakistan,30.07258,71.19379,165192,
1555,san biagio di callalta,veneto,italy,45.68361,12.37722,2584,
1556,negapatam,tamil nadu,india,10.76377,79.84313,94238,
1557,umhlanga rocks,kwazulu natal,south africa,-29.7253,31.0858,0,
1558,laukaa,central finland,finland,62.41407,25.95194,17093,
1559,misinto,lombardy,italy,45.66142,9.08129,4250,
1560,deforest,wisconsin,united states,43.2301,-89.3437,10691,Madison WI MSA
1561,makkum,friesland,netherlands,53.05458,5.40231,3285,
1562,riazzino,ticino,switzerland,46.1766,8.8904,0,
1564,echternach,echternach,luxembourg,49.81212,6.41846,4787,
1566,whitby,north yorkshire,united kingdom,54.4858,-0.6206,13213,
1567,aurora,new york,united states,42.75396,-76.70245,718,NY NONMETROPOLITAN AREA
1568,carlisle,massachusetts,united states,42.52926,-71.3495,4799,Boston-Cambridge-Quincy MA-NH MSA
1569,getinge,halland,sweden,56.81667,12.73333,1909,
1570,newington,virginia,united states,38.73845,-77.18498,12943,Washington-Arlington-Alexandria DC-VA-MD-WV MSA
1571,cleveland,north carolina,united states,35.7332,-80.67701,873,NC NONMETROPOLITAN AREA
1572,fort portal,western region,uganda,0.66174,30.2748,42670,
1573,runnemede,new jersey,united states,39.85234,-75.06795,8381,Philadelphia-Camden-Wilmington PA-NJ-DE-MD MSA
1574,dillingham,alaska,united states,59.03972,-158.4575,2404,AK NONMETROPOLITAN AREA
1575,kelso,washington,united states,46.14678,-122.90844,11901,Longview WA MSA
1577,amelia,louisiana,united states,29.66632,-91.10204,2459,LA NONMETROPOLITAN AREA
1578,turmero,aragua,venezuela,10.22856,-67.47421,344700,
1579,changi,tehran,iran,35.4896,51.7479,0,
1580,lacq,nouvelle aquitaine,france,43.41289,-0.61883,706,
1581,wauthier braine,wallonia,belgium,50.68183,4.29849,3651,
1582,baza,andalusia,spain,37.49073,-2.77259,23359,
1583,seogwipo,jeju do,south korea,33.25333,126.56181,178552,
1584,siilinjarvi,north savo,finland,63.08333,27.66667,20209,
1585,lombok,nusa tenggara barat,indonesia,-8.5,116.6667,0,
1586,zegveld,utrecht,netherlands,52.115,4.83611,2348,
1587,watervliet,new york,united states,42.73008,-73.70123,10214,Albany-Schenectady-Troy NY MSA
1588,peoria heights,illinois,united states,40.74726,-89.57398,5979,Peoria IL MSA
1589,shoreham,england,united kingdom,51.3334,0.17801,800,
1590,milton,stoke on trent,united kingdom,53.05,-2.142,17250,
1591,huaral,lima region,peru,-11.495,-77.20778,62174,
1592,jayanagar,narayani,nepal,26.918,85.3086,0,
1593,porcari,tuscany,italy,43.84152,10.61632,6732,
1594,sandy spring,maryland,united states,39.1496,-77.0269,0,Washington-Arlington-Alexandria DC-VA-MD-WV MSA
1595,deakin,australian capital territory,australia,-35.31927,149.10308,2940,
1596,halen,flanders,belgium,50.94837,5.11096,8548,
1597,patterson,new york,united states,41.4849,-73.5921,11866,New York-Northern New Jersey-Long Island NY-NJ-PA MSA
1598,mondovi,wisconsin,united states,44.56774,-91.67099,2654,WI NONMETROPOLITAN AREA
1599,st bonaventure,new york,united states,42.0806,-78.475,1909,NY NONMETROPOLITAN AREA
1600,shelter island,new york,united states,41.06815,-72.33869,1333,New York-Northern New Jersey-Long Island NY-NJ-PA MSA
1601,paterson,new south wales,australia,-32.60613,151.61589,875,New York-Northern New Jersey-Long Island NY-NJ-PA MSA
1602,rutherford,california,united states,38.45971,-122.4246,164,Napa CA MSA
1604,millbrook,alabama,united states,32.47986,-86.36192,15314,Montgomery AL MSA
1605,graaff reinet,eastern cape,south africa,-32.25215,24.53075,62896,
1606,khorugh,gorno badakhshan,tajikistan,37.48974,71.55304,30000,
1607,willington,connecticut,united states,41.8896,-72.2593,5893,Hartford-West Hartford-East Hartford CT MSA
1608,el kef,kef,tunisia,36.17424,8.70486,47979,
1609,milsons point,new south wales,australia,-33.846,151.21192,2170,
1610,hoogkerk,groningen,netherlands,53.2167,6.5,5307,
1613,fayetteville,new york,united states,43.02979,-76.00436,4180,Syracuse NY MSA
1614,ellisras,limpopo,south africa,-23.6649,27.7443,0,
1615,matraville,new south wales,australia,-33.96344,151.23195,9768,
1616,ventanilla,lima,peru,-11.8674,-77.1137,0,
1617,colby,kansas,united states,39.39584,-101.05238,5417,KS NONMETROPOLITAN AREA
1618,brandysek,central bohemia,czechia,50.18923,14.16199,1679,
1620,irondequoit,new york,united states,43.2134,-77.57972,51692,
1621,new brighton,pennsylvania,united states,40.73034,-80.31006,5891,Pittsburgh PA MSA
1622,kosamba,gujarat,india,21.46202,72.95842,33221,
1624,fairview,texas,united states,33.01929,-97.54586,1258,New York-Northern New Jersey-Long Island NY-NJ-PA MSA
1625,millingen aan de rijn,gelderland,netherlands,51.8667,6.05,5921,
1626,douglaston,new york,united states,40.76871,-73.74708,14762,
1627,ardon,north ossetia,russia,43.1772,44.29702,18313,
1628,cottesmore,england,united kingdom,52.71384,-0.6633,1067,
1629,nijkerkerveen,gelderland,netherlands,52.195,5.46667,2905,
1630,mellerud,vastra gotaland,sweden,58.69979,12.45312,3797,
1631,stokmarknes,nordland,norway,68.56462,14.91075,3119,
1634,fosnavag,more og romsdal,norway,62.3417,5.6339,3563,
1636,chatham,virginia,united states,36.82569,-79.39808,1481,Danville VA MSA
1637,nova pazova,vojvodina,serbia,44.94366,20.21931,15488,
1638,ganserndorf,lower austria,austria,48.33925,16.72016,11404,
1639,boothbay harbor,maine,united states,43.8523,-69.6281,1086,ME NONMETROPOLITAN AREA
1641,highland park,texas,united states,32.83346,-96.79195,9189,New York-Northern New Jersey-Long Island NY-NJ-PA MSA
1642,huizingen,flanders,belgium,50.7465,4.27377,3172,
1643,myaree,western australia,australia,-32.04,115.81761,1914,
1644,carling,grand est,france,49.16635,6.71563,3858,
1646,ruelle sur touvre,nouvelle aquitaine,france,45.67976,0.22925,7597,
1647,bolesławiec,lower silesia,poland,51.26418,15.5697,40682,
1649,gulfport,florida,united states,27.74836,-82.70343,12322,Gulfport-Biloxi MS MSA
1650,tregunc,brittany,france,47.85557,-3.85271,6775,
1652,machecoul,pays de la loire,france,46.99336,-1.82298,6054,
1653,east saint louis,illinois,united states,38.6245,-90.15094,27006,St. Louis MO-IL MSA
1654,ventimiglia,liguria,italy,43.78956,7.60872,18442,
1655,port orchard,washington,united states,47.54037,-122.63625,13607,Bremerton-Silverdale WA MSA
1657,lamesa,texas,united states,32.7376,-101.95099,9427,TX NONMETROPOLITAN AREA
1658,burlington,kansas,united states,38.19447,-95.74276,2615,KS NONMETROPOLITAN AREA
1659,latham,australian capital territory,australia,-35.21652,149.03144,3574,
1660,ithaca,michigan,united states,43.2917,-84.6075,2834,Ithaca NY MSA
1661,easton,massachusetts,united states,42.02454,-71.12866,23459,Providence-New Bedford-Fall River RI-MA MSA
1662,pawcatuck,connecticut,united states,41.37732,-71.83368,5624,Norwich-New London CT MSA
1664,mettawa,illinois,united states,42.23336,-87.92591,578,
1667,mont joli,quebec,canada,48.58388,-68.19214,6568,
1668,bowie,texas,united states,33.559,-97.84865,5126,TX NONMETROPOLITAN AREA
1669,audierne,brittany,france,48.0164,-4.53838,2601,
1671,villanova d asti,piedmont,italy,44.94299,7.93671,3798,
1672,oil city,pennsylvania,united states,41.43395,-79.70644,10137,PA NONMETROPOLITAN AREA
1673,new hill,north carolina,united states,35.681,-78.9356,0,Raleigh-Cary NC MSA
1674,temixco,morelos,mexico,18.85254,-99.22537,97788,
1675,bucksport,maine,united states,44.57369,-68.79559,2885,ME NONMETROPOLITAN AREA
1677,beechworth,victoria,australia,-36.35828,146.68584,3761,
1678,bessemer city,north carolina,united states,35.28486,-81.28397,5548,Charlotte-Gastonia-Concord NC-SC MSA
1679,kaikoura,canterbury,new zealand,-42.41667,173.68333,685,
1680,fayette,missouri,united states,39.14587,-92.68379,2702,Columbia MO MSA
1681,noicattaro,apulia,italy,41.03449,16.98963,21988,
1683,westmalle,flanders,belgium,51.29767,4.69013,8173,
1684,tavannes,bern,switzerland,47.22079,7.19759,3367,
1685,famalicao,leiria,portugal,39.53642,-9.08308,1740,
1687,maple lake,minnesota,united states,45.22913,-94.00192,2092,Minneapolis-St. Paul-Bloomington MN-WI MSA
1689,crimea,queensland,australia,-19.83422,146.74069,10,
1690,skibby,capital region,denmark,55.75122,11.96083,3148,
1692,plymouth,north carolina,united states,35.86683,-76.74856,3658,NC NONMETROPOLITAN AREA
1693,east haddam,connecticut,united states,41.45315,-72.4612,9042,Hartford-West Hartford-East Hartford CT MSA
1694,huntingburg,indiana,united states,38.29894,-86.955,6035,IN NONMETROPOLITAN AREA
1695,brevik,stockholm,sweden,59.35,18.2,8024,
1696,wautoma,wisconsin,united states,44.0747,-89.2879,2136,WI NONMETROPOLITAN AREA
1697,bellport,new york,united states,40.75704,-72.93927,2078,New York-Northern New Jersey-Long Island NY-NJ-PA MSA
1698,barrio escalante,san jose,costa rica,9.95,-84.05,0,
1699,winthrop,maine,united states,44.30507,-69.977,2650,Boston-Cambridge-Quincy MA-NH MSA
1700,basseterre,saint george basseterre,saint kitts and nevis,17.2955,-62.72499,12920,
1701,durham,connecticut,united states,41.48176,-72.68121,2933,Hartford-West Hartford-East Hartford CT MSA
1702,edwards air force base,california,united states,34.91637,-117.93535,2063,
1703,meilen,zurich,switzerland,47.27232,8.64617,4419,
1704,abbey wood,england,united kingdom,51.48688,0.10747,13000,
1705,hudson,north carolina,united states,35.84846,-81.49593,3721,Hickory-Lenoir-Morganton NC MSA
1706,anamosa,iowa,united states,42.10834,-91.28516,5469,Cedar Rapids IA MSA
1707,ergue gaberic,brittany,france,47.99657,-4.02438,7326,
1708,lionville,pennsylvania,united states,40.05372,-75.65993,6189,Philadelphia-Camden-Wilmington PA-NJ-DE-MD MSA
1709,lovendegem,flanders,belgium,51.10168,3.61298,9272,
1710,hilton,western australia,australia,-32.06208,115.78049,3861,
1711,posterholt,limburg,netherlands,51.12333,6.03472,3540,
1712,bredbury,england,united kingdom,53.41667,-2.11667,15126,
1713,vence,provence alpes cote d azur,france,43.72254,7.11183,18668,
1714,sulzbach rosenberg,bavaria,germany,49.50126,11.74598,19252,
1715,engis,wallonia,belgium,50.58156,5.39916,5737,
1717,bergentheim,overijssel,netherlands,52.5264,6.6139,0,
1719,kortemark,flanders,belgium,51.02951,3.04112,11937,
1720,castelgomberto,veneto,italy,45.58267,11.39007,4166,
1721,new carlisle,indiana,united states,41.70032,-86.50946,1853,South Bend-Mishawaka IN-MI MSA
1723,tower bridge,cork,ireland,51.9233,-8.6056,0,
1724,dubois,pennsylvania,united states,41.11923,-78.76003,7597,PA NONMETROPOLITAN AREA
1726,macedon,new york,united states,43.06923,-77.29887,1479,Rochester NY MSA
1727,san pedro,belize,belize,17.91598,-87.9659,17429,
1729,fairfield,maine,united states,44.5884,-69.59866,2638,ME NONMETROPOLITAN AREA
1730,airmont,new york,united states,41.10093,-74.11625,8891,
1731,west windsor,new jersey,united states,40.2897,-74.6267,27937,
1732,groveland,massachusetts,united states,42.76037,-71.03145,6143,Boston-Cambridge-Quincy MA-NH MSA
1733,punchbowl,new south wales,australia,-33.92893,151.05111,20174,
1734,forth,scotland,united kingdom,55.76502,-3.68874,2240,
1735,seneca falls,new york,united states,42.91062,-76.79662,6681,NY NONMETROPOLITAN AREA
1736,huxley,iowa,united states,41.89527,-93.60077,3536,Ames IA MSA
1737,cresson,pennsylvania,united states,40.45979,-78.59168,1633,Johnstown PA MSA
1738,athens,west virginia,united states,37.42234,-81.0162,951,WV NONMETROPOLITAN AREA
1739,saint florentin,bourgogne franche comte,france,48.00057,3.72489,5994,
1740,lomas verdes,veracruz,mexico,19.50446,-96.88899,6583,
1741,la seguiniere,pays de la loire,france,47.06343,-0.93996,3744,
1742,etrechy,ile de france,france,48.49465,2.19489,6461,
1744,oppeano,veneto,italy,45.30331,11.18005,2653,
1745,columbia heights,minnesota,united states,45.0408,-93.263,19715,
1746,beresfield,new south wales,australia,-32.8,151.65,3102,
1747,springville,new york,united states,42.5084,-78.66725,4339,Buffalo-Niagara Falls NY MSA
1748,driyorejo,east java,indonesia,-7.3659,112.6219,26827,
1749,avranches,normandie,france,48.6844,-1.3569,10246,
1750,chinchina,caldas,colombia,4.9825,-75.60361,68512,
1753,pithapuram,andhra pradesh,india,17.1168,82.25284,52709,
1755,seeduwa,western,sri lanka,7.1305,79.8871,0,
1756,tolmezzo,friuli venezia giulia,italy,46.39996,13.02051,8078,
1758,lith,north brabant,netherlands,51.80583,5.43889,2895,
1759,byron,minnesota,united states,44.03274,-92.64546,5328,Rochester MN MSA
1760,perivale,ealing,united kingdom,51.5383,-0.3192,15339,
1761,round lake beach,illinois,united states,42.37169,-88.09008,27852,
1762,wolvertem,flanders,belgium,50.95172,4.30964,8045,
1763,sainte gemmes sur loire,pays de la loire,france,47.4229,-0.55684,4157,
1765,juan les pins,provence alpes cote d azur,france,43.5711,7.1094,0,
1766,ciempozuelos,madrid,spain,40.15913,-3.62103,22132,
1767,meaulte,hauts de france,france,49.98167,2.66121,1287,
1769,xindian,fujian,china,26.12238,119.30153,2860,
1770,bella vista,nacional,dominican republic,18.45539,-69.9454,175683,
1773,meise,flanders,belgium,50.93934,4.32655,18497,
1774,toppenish,washington,united states,46.37735,-120.30867,8995,Yakima WA MSA
1775,occidental,california,united states,38.40741,-122.94833,1115,Santa Rosa-Petaluma CA MSA
1778,boekelo,overijssel,netherlands,52.2044,6.8019,0,
1779,de steeg,gelderland,netherlands,52.02,6.06111,990,
1780,villanova,the marches,italy,43.73926,12.93529,1521,
1781,rakovnik,central bohemia,czechia,50.1037,13.7334,16473,
1782,spotswood,new jersey,united states,40.39177,-74.39848,8476,New York-Northern New Jersey-Long Island NY-NJ-PA MSA
1783,marietta,washington,united states,48.78705,-122.58045,2766,Atlanta-Sandy Springs-Marietta GA MSA
1784,pocitos,aguascalientes,mexico,21.92167,-102.33472,5169,
1785,new,kentucky,united states,38.4278,-84.8105,0,
1786,puerto wilches,santander,colombia,7.34828,-73.89601,13705,
1788,vallon pont d arc,auvergne rhone alpes,france,44.40685,4.39374,2337,
1789,wenden,north rhine westphalia,germany,50.96667,7.86667,19924,
1790,belvoir,virginia,united states,38.8596,-77.8203,0,Washington-Arlington-Alexandria DC-VA-MD-WV MSA
1792,creches sur saone,bourgogne franche comte,france,46.24475,4.78678,2793,
1793,bohicon,zou,benin,7.17826,2.0667,125092,
1794,cuba,beja,portugal,38.16544,-7.8924,4878,
1795,bathmen,overijssel,netherlands,52.25,6.2869,5224,
1796,botshabelo,orange free state,south africa,-29.26737,26.72595,309714,
1797,la ferte mace,normandy,france,48.58999,-0.358,7372,
1798,brece,brittany,france,48.10904,-1.48308,1572,
1799,katikati,bay of plenty,new zealand,-37.55,175.91667,5460,
1800,medias,sibiu,romania,46.16667,24.35,53040,
1801,comas,junin,peru,-11.71807,-75.0821,967,
1802,rio piedras,salta,argentina,-25.3,-64.9,0,
1803,cutervo,cajamarca,peru,-6.3807,-78.818,0,
1804,wil,sankt gallen,switzerland,47.4664,9.0497,23768,
1805,stenløse,capital region,denmark,55.76828,12.19723,19998,
1806,imbituva,parana,brazil,-25.23,-50.60444,19671,
1807,saint julien les villas,grand est,france,48.27127,4.09901,6542,
1809,eiland,north brabant,netherlands,51.4275,4.36667,150,
1810,niskayuna,new york,united states,42.7798,-73.84568,4859,
1811,roye,hauts de france,france,49.70038,2.78959,6655,
1812,lembeke,flanders,belgium,51.19487,3.63333,3679,
1813,elizabeth,south australia,australia,-34.71944,138.67707,993,
1814,ancol,jakarta,indonesia,-6.1181,106.8614,0,
1815,humble,south denmark,denmark,54.82972,10.69961,619,Houston-Sugar Land-Baytown TX MSA
1816,fallanden,zurich,switzerland,47.37169,8.63869,2100,
1817,dunbar,west virginia,united states,38.36065,-81.73735,7659,Charleston WV MSA
1818,miltenberg,bavaria,germany,49.70452,9.26725,9613,
1819,ureterp,friesland,netherlands,53.09244,6.16718,3810,
1821,muswell hill,england,united kingdom,51.59054,-0.14212,27992,
1822,creve coeur,pamplemousses,mauritius,-20.19346,57.56328,3097,
1823,old forge,new york,united states,43.71007,-74.97434,756,Utica-Rome NY MSA
1824,prosser,washington,united states,46.2068,-119.76892,5869,Kennewick-Richland-Pasco WA MSA
1825,dover,pennsylvania,united states,40.00176,-76.85025,1991,York-Hanover PA MSA
1827,pensacola beach,florida,united states,30.3335,-87.1375,0,
1828,egtved,south denmark,denmark,55.61613,9.30763,2151,
1830,north syracuse,new york,united states,43.13479,-76.12992,6853,
1831,colma,california,united states,37.67688,-122.45969,1520,
1832,franklinton,north carolina,united states,36.10182,-78.45805,2135,Raleigh-Cary NC MSA
1833,st anthony,minnesota,united states,45.0278,-93.2174,9013,
1834,vatican city,,vatican,41.90268,12.45414,829,
1835,cluny,grand port,mauritius,-20.36694,57.60389,1629,
1836,templecombe,england,united kingdom,50.99908,-2.41578,1560,
1837,burien,washington,united states,47.47038,-122.34679,50467,
1838,oak hill,west virginia,united states,37.97233,-81.14871,8140,WV NONMETROPOLITAN AREA
1839,east perth,western australia,australia,-31.95872,115.87109,11549,
1840,rousse,leicestershire,guernsey,49.4969,-2.555,0,
1841,mindanao,guatemala,guatemala,14.78,-90.6059,0,
1842,herzele,flanders,belgium,50.88681,3.89014,16523,
1844,tremembe,sao paulo,brazil,-22.95833,-45.54944,31719,
1847,villaricca,campania,italy,40.92006,14.19339,25074,
1848,roman,neamt,romania,46.92119,26.92646,67819,
1850,sortland,nordland,norway,68.69569,15.40498,4620,
1851,passirano,lombardy,italy,45.59673,10.06986,5495,
1853,clarion,iowa,united states,42.73164,-93.73299,2767,IA NONMETROPOLITAN AREA
1854,butzberg,bern,switzerland,47.2153,7.7471,0,
1855,tavernerio,lombardy,italy,45.80068,9.14054,5569,
1856,alzey,rheinland pfalz,germany,49.74657,8.11513,18241,
1857,kalibata,jakarta,indonesia,-6.2614,106.8457,0,
1858,huaraz,ancash,peru,-9.52779,-77.52778,86934,
1859,monticello,lombardy,italy,45.71244,9.31481,3072,
1860,huyton,england,united kingdom,53.4115,-2.83935,54738,
1861,copper mountain,colorado,united states,39.50665,-106.14224,385,
1863,gondecourt,hauts de france,france,50.54469,2.98378,3994,
1865,richmond heights,ohio,united states,41.55283,-81.51012,10469,
1867,fairview,leinster,ireland,53.36597,-6.23985,3821,New York-Northern New Jersey-Long Island NY-NJ-PA MSA
1868,bruma,piedmont,italy,44.82839,7.81286,14,
1869,casalmaggiore,lombardy,italy,44.98981,10.42055,10438,
1870,nuku alofa,tongatapu,tonga,-21.13938,-175.2018,22400,
1871,birdsville,queensland,australia,-25.898,139.35173,292,
1874,clerkenwell,england,united kingdom,51.52438,-0.11022,4934,
1875,la penne sur huveaune,provence alpes cote d azur,france,43.28208,5.51642,6253,
1876,borup,zealand,denmark,55.69369,11.63424,4699,MN NONMETROPOLITAN AREA
1877,slochteren,groningen,netherlands,53.22078,6.80547,2055,
1879,brookwood,alabama,united states,33.25567,-87.32083,1822,Tuscaloosa AL MSA
1881,roscommon,michigan,united states,44.49835,-84.59197,1061,MI NONMETROPOLITAN AREA
1882,rouses point,new york,united states,44.99393,-73.36486,2169,NY NONMETROPOLITAN AREA
1883,greenvale,new york,united states,40.81066,-73.62846,1094,New York-Northern New Jersey-Long Island NY-NJ-PA MSA
1887,putnam valley,new york,united states,41.3979,-73.8368,11597,New York-Northern New Jersey-Long Island NY-NJ-PA MSA
1889,ely,nevada,united states,39.24744,-114.88863,4134,NV NONMETROPOLITAN AREA
1890,spilimbergo,friuli venezia giulia,italy,46.11345,12.89241,9422,
1891,camillus,new york,united states,43.03923,-76.3041,1228,Syracuse NY MSA
1892,lisserbroek,north holland,netherlands,52.25667,4.57222,3360,
1893,wildervank,groningen,netherlands,53.08083,6.8625,2990,
1894,vodskov,north denmark,denmark,57.10854,10.02215,4603,
1895,plouay,brittany,france,47.91466,-3.33482,5166,
1896,bartonville,illinois,united states,40.65032,-89.65205,6382,
1897,nieuwendijk,north brabant,netherlands,51.775,4.92083,3659,
1898,houlton,maine,united states,46.12616,-67.8403,5002,ME NONMETROPOLITAN AREA
1899,lathrup village,michigan,united states,42.49642,-83.22271,4135,
1900,ouarzazat,draa tafilalet,morocco,30.91894,-6.89341,57245,
1901,pannipitiya,western,sri lanka,6.8462,79.9448,0,
1903,la vallee,nouvelle aquitaine,france,45.89148,-0.84148,697,
1904,katanga,kwilu,congo,-3.3726,17.3998,0,
1905,palos park,illinois,united states,41.66725,-87.83033,4888,Chicago-Naperville-Joliet IL-IN-WI MSA
1906,oregon,illinois,united states,42.01475,-89.33233,3580,IL NONMETROPOLITAN AREA
1908,north strathfield,new south wales,australia,-33.85693,151.09124,4608,
1909,muri,bern,switzerland,46.93122,7.48658,12374,
1911,veluwe,gelderland,netherlands,51.8289,5.4048,0,
1912,farmville,north carolina,united states,35.57071,-79.22002,4613,Greenville NC MSA
1913,floby,vastra gotaland,sweden,58.13333,13.33333,1562,
1914,wilson,western australia,australia,-32.02058,115.91181,6288,
1917,chilpancingo,guerrero,mexico,17.5506,-99.50578,187251,
1918,sisimiut,qeqqata,greenland,66.93946,-53.6735,5227,
1919,norwich,norfolk,united kingdom,52.63,1.297,213166,
1920,boulder creek,california,united states,37.12606,-122.12219,4923,Santa Cruz-Watsonville CA MSA
1922,kolham,groningen,netherlands,53.1825,6.74444,850,
1924,haßfurt,bavaria,germany,50.03521,10.5156,13562,
1927,leon de los aldama,guanajuato,mexico,21.12908,-101.67374,1238962,
1928,denver city,texas,united states,32.96455,-102.8291,4864,TX NONMETROPOLITAN AREA
1930,segovia,antioquia,colombia,7.07993,-74.6989,39938,
1931,cheam,england,united kingdom,51.36179,-0.21977,11286,
1932,somers,new york,united states,41.3058,-73.725,21487,New York-Northern New Jersey-Long Island NY-NJ-PA MSA
1933,panorama,central macedonia,greece,40.58779,23.0315,16551,Los Angeles-Long Beach-Santa Ana CA MSA
1934,greenbrier,arkansas,united states,35.23397,-92.38765,5296,Little Rock-North Little Rock-Conway AR MSA
1935,tequesta,florida,united states,26.96811,-80.12865,5629,
1937,zaporizhzhia,zaporiz ka oblast,ukraine,47.8378,35.1383,741717,
1940,saint kilda,victoria,australia,-37.8676,144.98099,20417,
1941,piedade,sao paulo,brazil,-23.71194,-47.42778,27912,
1943,birstall,kirklees,united kingdom,53.7343,-1.6609,16298,
1945,portoferraio,tuscany,italy,42.81233,10.31297,8296,
1946,glenelg,south australia,australia,-34.98079,138.515,3623,
1947,skofja loka,skofja loka,slovenia,46.16551,14.30626,11969,
1948,columbus,north carolina,united states,35.25317,-82.19706,994,NC NONMETROPOLITAN AREA
1949,thames,waikato,new zealand,-37.13832,175.54011,7136,
1950,affi,veneto,italy,45.55297,10.7864,1733,
1951,rucphen,north brabant,netherlands,51.53167,4.55833,3660,
1952,igdır,igdır,turkey,39.92371,44.045,75721,
1953,madalena,porto,portugal,41.21616,-8.33451,9618,
1954,strausberg,brandenburg,germany,52.57859,13.88741,26649,
1955,selongey,bourgogne franche comte,france,47.58846,5.18483,2348,
1956,port cartier,quebec,canada,50.03339,-66.86545,5851,
1958,shoeburyness,southend on sea,united kingdom,51.5316,0.7978,11159,
1959,ceccano,lazio,italy,41.57236,13.32901,14805,
1960,gumpoldskirchen,lower austria,austria,48.04538,16.2771,3899,
1961,setauket,new york,united states,40.9489,-73.1151,0,New York-Northern New Jersey-Long Island NY-NJ-PA MSA
1963,jyderup,zealand,denmark,55.66399,11.42029,4303,
1964,vijfhuizen,north holland,netherlands,52.35083,4.67778,1895,
1965,mariager,north denmark,denmark,56.64985,9.97515,2539,
1967,rougemont,quebec,canada,45.43338,-73.04914,1481,
1968,noordhorn,groningen,netherlands,53.26167,6.39583,1375,
1969,chacarita,puntarenas,costa rica,9.98424,-84.77892,26354,
1971,narowal,punjab,pakistan,32.10197,74.87303,68291,
1972,cambre,galicia,spain,43.29438,-8.34736,23231,
1973,netanya,central,israel,32.3328,34.86,217244,
1974,foster creek,north carolina,united states,35.9226,-82.614,0,
1975,kauhajoki,south ostrobothnia,finland,62.43333,22.18333,14526,
1976,dedham,england,united kingdom,51.95892,0.99336,1014,
1977,mcconnellsburg,pennsylvania,united states,39.93259,-77.99889,1048,PA NONMETROPOLITAN AREA
1978,hauz khas,punjab,india,30.4643,74.191,0,
1979,licata,sicily,italy,37.10267,13.93972,36537,
1980,maniago,friuli venezia giulia,italy,46.16644,12.70602,10395,
1981,petersham,new south wales,australia,-33.8946,151.15495,8040,Worcester MA MSA
1982,l ile rousse,corsica,france,42.63371,8.93764,2774,
1983,orcas,washington,united states,48.59788,-122.94463,394,WA NONMETROPOLITAN AREA
1984,red oak,iowa,united states,41.00972,-95.22555,5472,IA NONMETROPOLITAN AREA
1987,acheson,pennsylvania,united states,40.1951,-80.4512,0,
1988,limelette,wallonia,belgium,50.68428,4.57186,5416,
1991,belen,new mexico,united states,34.66284,-106.77642,7152,Albuquerque NM MSA
1992,hlohovec,trnava,slovakia,48.43174,17.8031,23930,
1993,carros,provence alpes cote d azur,france,43.79246,7.18745,10883,
1994,rosehill,new south wales,australia,-33.82009,151.0245,4095,
1995,chavornay,vaud,switzerland,46.70244,6.5694,2841,
1996,carnation,washington,united states,47.64788,-121.91401,1873,Seattle-Tacoma-Bellevue WA MSA
1997,highland,new york,united states,41.72093,-73.96014,5647,Kingston NY MSA
1998,pozzilli,molise,italy,41.51142,14.06252,1778,
1999,orth an der donau,lower austria,austria,48.14524,16.70089,2086,
2000,thornbury,south gloucestershire,united kingdom,51.6094,-2.5249,12342,
2002,ballard,queensland,australia,-27.49954,151.98073,152,
2003,forest hill,england,united kingdom,51.4462,-0.04189,14854,
2004,jordbro,stockholm,sweden,59.14972,18.11667,10757,
2006,fiesole,tuscany,italy,43.80455,11.29487,2725,
2007,stokke,vestfold og telemark,norway,59.22255,10.30055,2618,
2008,monteverde,mont liban,lebanon,33.85,35.59,0,
2009,gorham,new hampshire,united states,44.38784,-71.17313,1600,NH NONMETROPOLITAN AREA
2010,spello,umbria,italy,42.99231,12.66632,4410,
2011,glendenning,new south wales,australia,-33.7483,150.85411,5131,
2012,estacada,oregon,united states,45.28957,-122.3337,3152,Portland-Vancouver-Beaverton OR-WA MSA
2013,la plaine,pays de la loire,france,47.06808,-0.63492,867,
2014,auderghem,brussels capital,belgium,50.81667,4.43333,33984,
2015,bahawalnagar,punjab,pakistan,29.99835,73.25272,126617,
2018,potomac falls,virginia,united states,39.0501,-77.4008,0,Washington-Arlington-Alexandria DC-VA-MD-WV MSA
2019,kvanum,vastra gotaland,sweden,58.3,13.18333,1278,
2020,grafton,ohio,united states,41.27255,-82.05459,6165,Cleveland-Elyria-Mentor OH MSA
